stop_id,stop_code,stop_name,stop_desc,stop_lat,stop_lon,zone_id,stop_url,location_type,parent_station,stop_timezone,wheelchair_boarding
27,907933,HAMILTON E HOLMES STATION,70 HAMILTON E HOLMES DR NW & CSX TRANSPORTATION,33.754553,-84.469302,,,,,,1
28,908023,WEST LAKE STATION,80 ANDERSON AVE NW & CSX TRANSPORTATION,33.753328,-84.445329,,,,,,1
39,907906,WEST LAKE STATION,80 ANDERSON AVE NW & CSX TRANSPORTATION,33.753247,-84.445568,,,,,,1
40,907907,HAMILTON E HOLMES STATION,70 HAMILTON E HOLMES DR NW & CSX TRANSPORTATION,33.754517,-84.469824,,,,,,1
53,908051,DUNWOODY STATION,1200 HAMMOND DR NE & UNNAMED ST,33.920862,-84.344213,,,,,,1
57,908054,LINDBERGH CENTER STATION,2424 PIEDMONT RD NE & METRO ATLANTA RAPID TRANSIT ATHRTY,33.823385,-84.369357,,,,,,1
58,908055,LINDBERGH CENTER STATION,2424 PIEDMONT RD NE & METRO ATLANTA RAPID TRANSIT ATHRTY,33.823492,-84.369324,,,,,,1
61,908047,DUNWOODY STATION,1200 HAMMOND DR NE & UNNAMED ST,33.92113,-84.344268,,,,,,1
83,908186,BROOKHAVEN-OGLETHORPE STATION,4067 PEACHTREE RD NE & LENOX RD NE,33.860329,-84.339245,,,,,,1
84,908187,BROOKHAVEN-OGLETHORPE STATION,4047 PEACHTREE RD NE & LENOX RD NE,33.859989,-84.339397,,,,,,1
111,906369,ARTS CENTER STATION,1255 W PEACHTREE ST NW & 16TH ST NW,33.789669,-84.387414,,,,,,1
112,906370,ARTS CENTER STATION,1255 W PEACHTREE ST NW & 15TH ST NE,33.788828,-84.387272,,,,,,1
133,908374,MIDTOWN  STATION,41 10TH ST NE & PEACHTREE WALK NE,33.781247,-84.386342,,,,,,1
134,908375,MIDTOWN STATION,41 10TH ST NE & PEACHTREE WALK NE,33.781355,-84.386353,,,,,,1
185,908566,EAST LAKE STATION,2260 W HOWARD AVE & UNNAMED ST,33.765241,-84.312937,,,,,,1
186,908567,EAST LAKE STATION,2260 W HOWARD AVE & UNNAMED ST,33.765196,-84.313426,,,,,,1
193,908475,DECATUR STATION,400 CHURCH ST & E PONCE DE LEON AVE,33.774699,-84.295417,,,,,,1
195,908476,EDGEWOOD-CANDLER PARK STATION,1475 DEKALB AVE NE & HURT ST NE,33.761803,-84.340825,,,,,,1
198,908618,GEORGIA STATE STATION,170 PIEDMONT AVE SE & GEORGIA,33.750161,-84.385915,,,,,,1
201,908696,GEORGIA STATE STATION,170 PIEDMONT AVE SE & BROAD ST SW,33.750143,-84.385882,,,,,,1
204,908699,EDGEWOOD-CANDLER PARK STATION,1475 DEKALB AVE NE & HURT ST NE,33.761866,-84.340456,,,,,,1
206,908700,DECATUR STATION,400 CHURCH ST & E PONCE DE LEON AVE,33.774681,-84.295319,,,,,,1
217,908628,EAST POINT STATION,2848 MAIN ST & THOMPSON AVE,33.677424,-84.440542,,,,,,1
218,908629,LAKEWOOD-FT MCPHERSON STATION,2020 LEE ST SW & THOMPSON AVE,33.70088,-84.428768,,,,,,1
219,908704,WEST END STATION,680 LEE ST SW & UNNAMED ST,33.736564,-84.413653,,,,,,1
220,908705,WEST END STATION,680 LEE ST SW & UNNAMED ST,33.735705,-84.413663,,,,,,1
221,908706,LAKEWOOD-FT MCPHERSON STATION,2020 LEE ST SW & MAIN ST,33.700298,-84.428865,,,,,,1
222,908707,EAST POINT STATION,2848 MAIN ST & THOMPSON AVE,33.676985,-84.440704,,,,,,1
224,908709,KENSINGTON STATION,3350 KENSINGTON RD & UNNAMED ST,33.772764,-84.252151,,,,,,1
232,908634,KENSINGTON STATION,3350 KENSINGTON RD & E PONCE DE LEON AVE,33.772647,-84.251607,,,,,,1
243,908717,LENOX STATION,955 E PACES FERRY RD NE & LENOX RD NE,33.845307,-84.358387,,,,,,1
244,908718,BUCKHEAD STATION,3360 PEACHTREE RD NE & GA-400-TOLL,33.84781,-84.367629,,,,,,1
249,908639,BUCKHEAD STATION,3360 PEACHTREE RD NE & GA-400-TOLL,33.847944,-84.367716,,,,,,1
250,906827,LENOX STATION,955 E PACES FERRY RD NE & LENOX RD NE,33.845388,-84.358235,,,,,,1
269,907960,BANKHEAD STATION,1335 DONALD LEE HOLLOWELL PKY NW & UNNAMED ST,33.772159,-84.428873,,,,,,1
270,907961,BANKHEAD STATION,1335 DONALD LEE HOLLOWELL PKY NW & UNNAMED ST,33.772436,-84.428906,,,,,,1
280,907913,NORTH AVENUE STATION,713 W PEACHTREE ST NW & NORTH AVE NE,33.771472,-84.387258,,,,,,1
281,907914,NORTH AVENUE STATION,713 W PEACHTREE ST NW & UNNAMED ST,33.771741,-84.387204,,,,,,1
355,906311,HOWELL MILL RD @ KIPLING DR,HOWELL MILL RD NW & KIPLING DR NW,33.81354,-84.414774,0,,,,,1
375,908862,DORAVILLE STATION,6000 NEW PEACHTREE RD & PARK AVE,33.902411,-84.281166,,,,,,1
384,908845,DORAVILLE STATION,6000 NEW PEACHTREE RD & LENOX RD NE,33.902787,-84.28061,,,,,,1
394,908872,MEDICAL CENTER STATION,5711 PEACHTREE DUNWOODY RD NE & HOLLIS COBB CIR,33.910757,-84.35189,,,,,,1
399,908885,MEDICAL CENTER STATION,5711 PEACHTREE DUNWOODY RD & HOLLIS COBB CIR,33.910739,-84.351759,,,,,,1
429,908911,CIVIC CENTER STATION,435 W PEACHTREE ST NW & I-75,33.766111,-84.387504,,,,,,1
430,908912,CIVIC CENTER STATION,435 W PEACHTREE ST NW & I-75,33.766236,-84.387504,,,,,,1
470,908958,VINE CITY STATION,502 RHODES ST NW & UNNAMED ST,33.756613,-84.403902,0,,,,,1
471,908959,VINE CITY STATION,502 RHODES ST NW & ELECTRIC AVE NW,33.756613,-84.404021,,,,,,1
485,908963,ASHBY STATION,65 JOSEPH E LOWERY BLVD NW & UNNAMED ST,33.756478,-84.41723,,,,,,1
486,908964,ASHBY STATION,65 JOSEPH E LOWERY BLVD NW & UNNAMED ST,33.756477,-84.417328,,,,,,1
693,908301,OAKLAND CITY STATION,1400 LEE ST SW & MAIN ST,33.7173,-84.42503,,,,,,1
694,908302,OAKLAND CITY STATION,1400 LEE ST SW & UNNAMED ST,33.716978,-84.425138,,,,,,1
730,908480,NORTH SPRINGS STATION,7010 PEACHTREE DUNWOODY RD & PERIMETER CTR W,33.944377,-84.357253,,,,,,1
796,908435,GWCC-CNN CENTER STATION,100 CENTENNIAL OLYMPIC PARK DR NW & PHILIPS DR NW,33.756179,-84.397215,,,,,,1
797,908981,FIVE POINTS STATION,30 ALABAMA ST SW & UPPER ALABAMA ST SW,33.753837,-84.391397,,,,,,1
798,908436,KING MEMORIAL STATION,377 DECATUR ST SE & UNNAMED ST,33.749951,-84.375675,,,,,,1
799,908437,INMAN PARK-REYNOLDSTOWN STATION,1055 DEKALB AVE NE & UNNAMED ST,33.757451,-84.352762,,,,,,1
800,908438,AVONDALE STATION,915 E PONCE DE LEON AVE & E PONCE DE LEON AVE,33.775554,-84.281487,,,,,,1
801,908515,INDIAN CREEK STATION,3901 DURHAM PARK RD & UNNAMED ST,33.769856,-84.228906,,,,,,1
802,908516,INDIAN CREEK STATION,3901 DURHAM PARK RD & UNNAMED ST,33.769893,-84.229874,,,,,,1
803,908691,AVONDALE STATION,915 E PONCE DE LEON AVE & E PONCE DE LEON AVE,33.775214,-84.282466,,,,,,1
804,908692,INMAN PARK-REYNOLDSTOWN STATION,1055 DEKALB AVE NE & HURT ST NE,33.757227,-84.353066,,,,,,1
805,908693,KING MEMORIAL STATION,377 DECATUR ST SE & UNNAMED ST,33.749853,-84.37599,0,,,,,1
806,908990,FIVE POINTS STATION,30 ALABAMA ST SW & BROAD ST SW,33.754123,-84.391876,,,,,,1
807,908694,GWCC-CNN CENTER STATION,100 CENTENNIAL OLYMPIC PARK DR NW & PHILIPS DR NW,33.756187,-84.397291,,,,,,1
808,908695,AIRPORT STATION,6000 S TERMINAL PKY & UNNAMED ST,33.640831,-84.446198,,,,,,1
809,908599,COLLEGE PARK STATION,3800 E MAIN ST & UNNAMED ST,33.650577,-84.448656,,,,,,1
810,908600,GARNETT STATION,225 PEACHTREE ST SW & GARNETT ST SW,33.748938,-84.395545,,,,,,1
811,908986,FIVE POINTS STATION,30 ALABAMA ST SW & UPPER ALABAMA ST SW,33.754052,-84.391452,,,,,,1
812,908601,PEACHTREE CENTER STATION,216 PEACHTREE ST NE & ELLIS ST NW,33.758189,-84.387596,,,,,,1
814,908603,CHAMBLEE STATION,5200 NEW PEACHTREE RD & LENOX RD NE,33.887929,-84.305556,,,,,,1
815,908604,CHAMBLEE STATION,5200 NEW PEACHTREE RD & LENOX RD NE,33.887517,-84.306362,,,,,,1
817,907842,PEACHTREE CENTER STATION,216 PEACHTREE ST NE & ELLIS ST NE,33.758082,-84.387595,,,,,,1
818,908976,FIVE POINTS STATION,30 ALABAMA ST SW & UPPER ALABAMA ST SW,33.753899,-84.39156,,,,,,1
819,907843,GARNETT STATION,225 PEACHTREE ST SW & GARNETT ST SW,33.748696,-84.395741,,,,,,1
820,907844,COLLEGE PARK STATION,3800 E MAIN ST & UNNAMED ST,33.650282,-84.448612,,,,,,1
821,906647,AIRPORT STATION,6000 S TERMINAL PKY & UNNAMED ST,33.640553,-84.446198,,,,,,1
822,907845,SANDY SPRINGS STATION,1101 MT VERNON HWY NE & UNNAMED ST,33.931671,-84.351069,,,,,,1
823,907846,SANDY SPRINGS STATION,1101 MT VERNON HWY NE & UNNAMED ST,33.931564,-84.35096,,,,,,1
1118,906837,AIRPORT STATION,6000 S TERMINAL PKY & UNNAMED ST,33.640294,-84.446197,,,,,,1
9008,902632,N MAIN ST @ WINTHROPE PARK DR,0 MAIN & WINTHROPE PARK,34.089495,-84.294218,,,,,,1
9012,902630,N MAIN ST @ 379,,34.085826,-84.294957,,,,,,1
9016,902631,N MAIN ST @ 301,0 MAIN & PINE GROVE,34.08386,-84.294755,,,,,,1
9020,900005,N MAIN ST @ PINE GROVE DR,0 MAIN & PINE GROVE,34.082292,-84.294607,,,,,,1
9025,900006,N MAIN ST @ MAYFIELD RD,0 MAIN & MAYFIELD,34.080401,-84.29444,,,,,,1
9030,900018,N MAIN ST @ CUMMING ST,0 MAIN & CUMMING,34.078152,-84.294291,,,,,,1
9031,900007,N MAIN ST @ ACADEMY ST,0 MAIN & ACADEMY,34.076201,-84.294288,,,,,,1
9034,900008,N MAIN ST @ VAUGHAN DR,0 MAIN & VAUGHN,34.090788,-84.292399,,,,,,1
9224,900010,N MAIN ST @ VAUGHAN DR,0 N MAIN ST & VAUGHN DR,34.090721,-84.293124,,,,,,0
9226,900011,N MAIN ST @ PINE GROVE DR,0 MAIN & PINE GROVE,34.082476,-84.295051,,,,,,1
10004,900012,WINDWARD PKWY @ DEERFIELD PKWY,0 WINDWARD PKY & DEERFIELD PKY,34.088114,-84.270253,0,,,,,0
10006,900013,WINDWARD PKWY @ 5530,5530 WINDWARD PKY,34.087265,-84.266012,0,,,,,0
10008,900014,WINDWARD PKWY @ NORTH POINT PKWY,0 WINDWARD & NORTH POINT,34.088733,-84.257695,0,,,,,1
10010,902838,WINDWARD PKWY @ NORTH POINT PKWY,0 WINDWARD PKY & NORTH POINT PKY,34.088603,-84.257107,,,,,,0
10040,902839,MARTIN L KING JR DR NW @ OLLIE ST NW,0 MARTIN LUTHER KING JR DR NW & OLLIE ST NW,33.754809,-84.421186,,,,,,1
10044,902840,NORTH POINT PKWY @ 900,,34.08083,-84.25948,,,,,,1
10046,902796,NORTH POINT PKWY @ 960,,34.078413,-84.260238,,,,,,1
10054,902798,NORTH POINT PKWY @ 960,960 NORTH POINT PKY,34.078163,-84.260696,,,,,,1
10056,902799,NORTH POINT PKWY @ WEBB BRIDGE RD,0 NORTH POINT PKY & WEBB BRIDGE RD,34.076401,-84.260458,0,,,,,0
10134,902902,ATLANTA STUDENT MOVEMENT BLVD @ NORTHSIDE DR SW,0 ATLANTA STUDENT MOVEMENT BLVD & NORTHSIDE DR SW,33.748879,-84.404858,0,,,,,1
10142,906745,DEERFIELD PKWY @ MORRIS RD,DEERFIELD PKY & MORRIS RD,34.090815,-84.27003,0,,,,,1
10146,902976,WINDWARD PKWY @ JORDAN CT,5230 WINDWARD,34.092278,-84.276484,,,,,,1
10148,902977,SR 9 @ WINDWARD PKWY,0 CUMMING HWY & N MAIN ST,34.09459,-84.277967,,,,,,1
10150,902978,N MAIN ST @ COGBURN RD,0 CUMMING HWY & COGBURN RD,34.092294,-84.284189,0,,,,,1
10168,902903,N MAIN ST @ 684,,34.092137,-84.288496,0,,,,,0
10170,902904,N MAIN ST @ WATER OAK PL,,34.091927,-84.288615,,,,,,1
10172,902905,DEERFIELD PKWY @ MORRIS RD,0 DEERFIELD PKY & MORRIS RD,34.089933,-84.269247,0,,,,,0
10174,902979,DEERFIELD PKWY @ TWO VERIZON PL,0 DEERFIELD PKY & TWO VERIZON PL,34.09337,-84.270926,,,,,,1
10176,902980,DEERFIELD PKWY @ THREE VERIZON PL,0 DEERFIELD PKY & VERIZON PL,34.09548,-84.267954,,,,,,1
10186,902981,N MAIN ST @ WINDWARD PKWY W,0 MAIN & WINDWARD,34.093963,-84.279531,,,,,,1
10188,902982,OLD MILTON PKWY @ BRIDGE POINTE DR,0 OLD MILTON PKY & BRIDGE POINTE DR,34.06256,-84.24747,,,,,,1
10212,903045,N MAIN ST @ HENDERSON PKWY,0 MAIN & COGBURN,34.092071,-84.285269,0,,,,,1
10214,903046,N MAIN ST @ CANTON ST,0 MAIN & CANTON,34.08877,-84.29502,0,,,,,0
10218,903083,OLD MILTON PKWY @ BROOKSIDE PKWY,3625 OLD MILTON PKY & BROOKSIDE PKY,34.064694,-84.253908,,,,,,1
10220,903084,BROOKSIDE PKWY @ 3705,,34.06235,-84.2544,0,,,,,1
10222,903085,BROOKSIDE PKWY @ 3775,3775 BROOKSIDE PKY,34.061248,-84.252481,,,,,,1
10232,903185,OLD MILTON PKWY @ ROCKBERRY LN,0 OLD MILTON PKY & ROCKBERRY LN,34.061439,-84.244415,,,,,,1
10234,903186,OLD MILTON PKWY @ COTTON CREEK ENTRY,0 OLD MILTON PKY & COTTON CREEK ENTRY,34.064854,-84.253526,,,,,,1
10238,902637,OLD MILTON PKWY @ 3502,,34.066705,-84.258072,,,,,,1
10244,902638,NORTH POINT PKWY @ 500,,34.085357,-84.257443,0,,,,,0
10248,902639,WINDWARD PKWY @ WESTSIDE PKWY,0 WINDWARD PKY & WESTSIDE PKY,34.087517,-84.269008,,,,,,1
10250,903217,MORRIS RD @ WEBB RD,0 MORRIS RD & WEBB RD,34.096344,-84.260561,,,,,,0
10252,903218,MORRIS RD @ 13010,,34.094303,-84.262563,,,,,,1
10254,903219,OLD MILTON PKWY @ PARK BRIDGE PKWY,OLD MILTON PKY & PARK BRIDGE PKY,34.061026,-84.242859,0,,,,,1
10256,903220,WINDWARD PKWY @ N MAIN ST,0 WINDWARD PKY & N MAIN ST,34.093579,-84.278328,,,,,,1
10266,902641,WINDWARD PARK & RIDE,200 DRYDEN RD,34.085992,-84.260559,,,,,,1
10270,902643,MORRIS RD @ 12395,,34.081629,-84.261662,0,,,,,1
10272,902644,WINDWARD PKWY @ 5555,5555 WINDWARD PKY,34.087024,-84.265427,0,,,,,1
10274,902649,DEERFIELD PKWY @ WEBB RD,0 DEERFIELD PKY & WEBB RD,34.097509,-84.264371,,,,,,0
10276,902650,MORRIS RD @ ONE VERIZON PL,12726 MORRIS,34.091014,-84.266497,,,,,,0
14002,902765,ALPHARETTA HWY @ HOUZE WAY,0 ALPHARETTA & HOUZE,34.046292,-84.339693,0,,,,,1
14004,902766,ALPHARETTA HWY @ SUN VALLEY DR,0 ALPHARETTA HWY & SUN VALLEY DR,34.049772,-84.337806,,,,,,0
14009,902772,ALPHARETTA HWY @ ELKINS RD,0 ALPHARETTA HWY & ELKINS RD,34.051866,-84.334413,,,,,,1
14010,902773,ALPHARETTA HWY @ MANSELL PL,0 ALPHARETTA & MANSELL,34.054226,-84.330254,,,,,,0
14012,902774,ALPHARETTA HWY @ GREENHOUSE DR,0 ALPHARETTA HWY & GREENHOUSE DR,34.055115,-84.329132,0,,,,,1
14014,902767,ALPHARETTA HWY @ ROSEMONT PKWY,0 ALPHARETTA & ROSEMONT,34.058438,-84.326409,,,,,,1
14018,902768,ALPHARETTA HWY @ HEMBREE RD,0 ALPHARETTA HWY & HEMBREE RD,34.060832,-84.324602,,,,,,1
14020,902769,ALPHARETTA HWY @ HOSPITAL BLVD,0 ALPHARETTA HWY & HOSPITAL BLVD,34.062747,-84.322976,,,,,,1
14022,902770,ALPHARETTA HWY @ NORTHMEADOW PKWY,0 ALPHARETTA HWY & NORTHMEADOW PKWY,34.065852,-84.31873,,,,,,0
14024,906278,ALPHARETTA HWY @ HANEY DR,0 ALPHARETTA HWY & HANEY DR,34.066263,-84.316296,,,,,,1
14026,906279,ALPHARETTA HWY @ WILLS RD,0 ALPHARETTA & WILLS,34.066362,-84.313344,0,,,,,0
14028,906281,ALPHARETTA HWY @ HANEY DR,0 ALPHARETTA & HANEY,34.066383,-84.316063,,,,,,0
14030,906295,ALPHARETTA HWY @ UPPER HEMBREE RD,0 ALPHARETTA HWY & UPPER HEMBREE RD,34.065865,-84.319,0,,,,,1
14032,906296,ALPHARETTA HWY @ HOSPITAL BLVD,0 ALPHARETTA HWY & HOSPITAL BLVD,34.06329,-84.322723,0,,,,,1
14034,906312,ALPHARETTA HWY @ HEMBREE RD,0 ALPHARETTA & HEMBREE,34.061096,-84.324554,0,,,,,1
14038,906337,ALPHARETTA HWY @ 11450,,34.057182,-84.327896,0,,,,,1
14040,906338,ALPHARETTA HWY @ GREENHOUSE DR,0 ALPHARETTA HWY & GREENHOUSE DR,34.055408,-84.329323,0,,,,,1
14042,906339,ALPHARETTA HWY @ MANSELL PL,0 ALPHARETTA & MANSELL,34.053848,-84.331345,,,,,,0
14046,906314,ALPHARETTA HWY @ SUN VALLEY DR,0 ALPHARETTA HWY & SUN VALLEY DR,34.050059,-84.337621,0,,,,,1
14048,906315,S MAIN ST @ 571,571 S MAIN ST & MAXWELL RD,34.066226,-84.309834,,,,,,1
15007,906341,MAIN ST @ BRADY PL,0 MAIN & BRADY,34.066297,-84.304719,,,,,,0
15008,906342,MAIN ST @ MAXWELL RD,0 MAIN & MAXWELL,34.067867,-84.301102,,,,,,1
15011,906318,N MAIN ST @ CUMMING ST,0 N MAIN ST & CUMMING ST,34.07832,-84.294505,,,,,,1
15014,906320,S MAIN ST @ JANIS LN,0 S MAIN ST & JANIS LN,34.06975,-84.298078,0,,,,,1
15018,903188,NORTH POINT PKWY @ 6360,6360 NORTH POINT PKY,34.046674,-84.290519,0,,,,,0
15020,903189,NORTH POINT PKWY @ 6250,6250 NORTH POINT PKY,34.046985,-84.290381,,,,,,1
15022,902705,S MAIN ST @ MAXWELL RD,0 S MAIN ST & MAXWELL RD,34.0678,-84.301615,0,,,,,1
15026,902706,S MAIN ST @ JANIS LN,0 S MAIN ST & JANIS LN,34.069839,-84.29787,,,,,,1
15028,902707,HAYNES BRIDGE RD @ 11385,11785 HAYNES BRIDGE,34.056886,-84.286369,,,,,,1
15030,902708,HAYNES BRIDGE RD @ RAINWATER DR,0 HAYNES BRIDGE RD & RAINWATER DR,34.063717,-84.291553,,,,,,1
15032,903190,HAYNES BRIDGE RD @ DEVORE RD,0 HAYNES BRIDGE & DEVORE,34.066925,-84.293098,0,,,,,1
15036,903191,HAYNES BRIDGE RD @ 11770,,34.068882,-84.293925,,,,,,1
15037,903192,HAYNES BRIDGE RD @ DEVORE RD,0 HAYNES BRIDGE RD & DEVORE RD,34.066134,-84.293113,,,,,,1
15040,902709,HAYNES BRIDGE RD @ WOODHAVEN WAY,0 HAYNES BRIDGE RD & WOODHAVEN WAY,34.063449,-84.291782,,,,,,1
15042,902710,HAYNES BRIDGE RD @ RAINWATER BLVD,0 HAYNES BRIDGE & MORRISON,34.061653,-84.29047,0,,,,,0
15044,902711,ALPHARETTA HWY @ ROSEMONT PKWY,0 ALPHARETTA HWY & ROSEMONT PKWY,34.058564,-84.326815,0,,,,,1
15048,902653,HAYNES BRIDGE RD @ WESTSIDE PKWY,0 HAYNES BRIDGE & MORRISON,34.061055,-84.289146,,,,,,0
15054,902775,ACADEMY ST @ HAYNES BRIDGE RD,0 ACADEMY & HAYNES BRIDGE,34.075556,-84.292045,0,,,,,1
15056,902817,HAYNES BRIDGE RD @ LAKEVIEW PKWY,HAYNES BRIDGE RD & LAKEVIEW PKY,34.05829,-84.28759,0,,,,,1
15062,902820,NORTH POINT PKWY @ NORTH POINT CT,0 NORTH POINT PKY & NORTH POINT CT,34.047736,-84.288493,0,,,,,0
15066,902776,HAYNES BRIDGE RD @ ROCK MILL RD,,34.051852,-84.285401,0,,,,,1
15068,902777,HAYNES BRIDGE RD @ NORTHWINDS PKWY,HAYNES BRIDGE RD & NORTHWINDS PKY,34.058607,-84.287375,,,,,,1
15074,902821,NORTH POINT PKWY @ GEORGIA LANE,0 NORTH POINT PKY & GEORGIA LN,34.04988,-84.283285,0,,,,,1
15076,902822,NORTH POINT PKWY @ GEORGIA LN,0 NORTH POINT PKY & GEORGIA LN,34.049247,-84.283975,,,,,,0
15078,902846,HAYNES BRIDGE RD @ NORTH POINT DR,0 HAYNES BRIDGE & NORTH POINT,34.049964,-84.285986,,,,,,1
15080,902847,NORTH POINT PKWY @ KIMBALL BRIDGE RD,5055 NORTH POINT PKY & KIMBALL BRIDGE RD,34.05462,-84.274303,,,,,,1
15082,902780,NORTH POINT PKWY @ 5055,,34.054726,-84.277286,,,,,,1
15086,902948,NORTH POINT PKWY @ MILL CREEK AVE,0 NORTH POINT PKY & MILL CREEK AVE,34.049836,-84.281438,0,,,,,1
15088,902949,NORTH POINT PKWY @ NORTH POINT DR,0 NORTH POINT PKY & NORTH POINT DR,34.050454,-84.280754,0,,,,,1
15090,902950,NORTH POINT PKWY @ ROCK MILL RD,0 NORTH POINT & ROCK MILL,34.051814,-84.279206,,,,,,1
15092,902951,NORTH POINT PKWY @ ROCK MILL RD,0 NORTH POINT PKY & ROCK MILL RD,34.051938,-84.279652,,,,,,1
16010,902917,NORTH POINT PKWY @ ROYAL BLVD S,0 NORTH POINT & ROYAL,34.054964,-84.271753,0,,,,,1
16016,902918,NORTH POINT PKWY @ 4000,4000 NORTH POINT PKY,34.065942,-84.262005,,,,,,1
16018,902919,NORTH POINT PKWY @ PRESTON RIDGE RD,0 NORTH POINT & PRESTON RIDGE,34.071018,-84.256571,,,,,,1
16022,902954,NORTH POINT PKWY @ 3180,3200 NORTH POINT,34.074524,-84.258205,0,,,,,1
16023,902955,NORTH POINT PKWY @ PRESTON RIDGE RD,0 NORTH POINT & PRESTON RIDGE,34.071684,-84.256765,,,,,,1
16024,902920,NORTH POINT PKWY @ 3180,,34.07454,-84.258895,0,,,,,1
16028,902921,NORTH POINT PKWY @ 4125,,34.06661,-84.262158,,,,,,1
16030,902922,NORTH POINT PKWY @ OLD MILTON PKWY,3980 NORTH POINT PKY & OLD MILTON PKY,34.068575,-84.260684,0,,,,,1
20012,903071,ATLANTA ST @ OAK ST,0 ATLANTA & OAK,34.020055,-84.361654,0,,,,,1
20014,903098,ALPHARETTA ST @ ELIZABETH WAY,0 ALPHARETTA ST & ELIZABETH WAY,34.024141,-84.360722,,,,,,1
20018,903100,ALPHARETTA ST @ GREEN ST,0 ALPHARETTA & CHERRY,34.026436,-84.359341,0,,,,,1
20020,903101,ALPHARETTA ST @ WOODSTOCK ST,0 ALPHARETTA & WOODSTOCK,34.029003,-84.356476,0,,,,,1
20024,903072,ALPHARETTA ST @ THOMAS DR,,34.03132,-84.352794,,,,,,1
20026,903073,ALPHARETTA ST @ 1207,,34.032179,-84.351299,,,,,,1
20028,903074,ALPHARETTA ST @ ALPINE DR,0 ALPHARETTA & ALPINE,34.034595,-84.346985,,,,,,0
20032,903075,ALPHARETTA ST @ STRICKLAND RD,0 ALPHARETTA ST & STRICKLAND RD,34.031257,-84.353143,,,,,,1
20036,903102,ALPHARETTA ST @ WOODSTOCK ST,0 ALPHARETTA ST & WOODSTOCK ST,34.029726,-84.355608,,,,,,1
20038,903103,ALPHARETTA ST @ CHERRY ST,0 ALPHARETTA ST & CHERRY WAY,34.028401,-84.357669,0,,,,,1
20042,903105,ALPHARETTA ST @ ELIZABETH WAY,0 ALPHARETTA ST & ELIZABETH WAY,34.024697,-84.36072,0,,,,,1
20044,903166,ATLANTA ST @ OXBO RD,0 ATLANTA ST & OXBO RD,34.016994,-84.362663,0,,,,,1
20046,902622,ATLANTA ST @ OAK ST,0 ATLANTA ST & OAK ST,34.020179,-84.36188,0,,,,,1
20050,902623,ATLANTA ST @ HILL ST,0 ATLANTA ST & HILL ST,34.021609,-84.361604,,,,,,1
20052,902719,MAIN ST @ PARK ST,0 MAIN & PARK,33.524877,-84.664778,,,,,,1
20054,902720,ALPHARETTA ST @ THOMAS DR,0 ALPHARETTA & THOMAS,34.030607,-84.353944,,,,,,1
21009,902721,MANSELL RD @ 901,0 MANSELL RD & UNKNOWN,34.042742,-84.333536,0,,,,,1
21010,902722,MANSELL RD @ EAGLES CREST VILLAGE LN,,34.042724,-84.339458,0,,,,,1
21011,902624,MANSELL RD @ WARSAW RD,0 MANSELL & WARSAW,34.042573,-84.329835,0,,,,,1
21012,902625,MANSELL RD @ OLD ROSWELL RD,0 MANSELL RD & OLD ROSWELL RD,34.041203,-84.324064,0,,,,,1
21014,902626,MANSELL RD @ DUKE DR,0 MANSELL RD & DUKE DR,34.040153,-84.31857,0,,,,,1
21023,902723,MANSELL RD @ WESTSIDE WAY,0 MANSELL RD & WESTSIDE PKY,34.040324,-84.319267,0,,,,,1
21025,902724,MANSELL RD @ WARSAW RD,0 MANSELL RD & WARSAW RD,34.042695,-84.329196,,,,,,0
21029,902628,MANSELL RD @ EAGLES CREST VILLAGE LN,0 MANSELL RD & EAGLESCREST VILLAGE LN,34.042829,-84.338711,,,,,,1
21038,902787,HOLCOMB BRIDGE RD @ ALPHARETTA ST,0 HOLCOMB BRIDGE RD & ALPHARETTA ST,34.035876,-84.342867,0,,,,,0
21042,902788,HOLCOMB BRIDGE RD @ ALPHARETTA ST,0 HOLCOMB BRIDGE & ALPHARETTA,34.034755,-84.34199,,,,,,0
21044,902789,HOLCOMB BRIDGE RD @ GRIMES BRIDGE RD,0 HOLCOMB BRIDGE RD & GRIMES BRIDGE RD,34.032912,-84.341335,0,,,,,0
21046,902832,HOLCOMB BRIDGE RD @ OLD ROSWELL RD,,34.032943,-84.34081,0,,,,,1
21048,902856,HOLCOMB BRIDGE RD @ OLD ROSWELL RD,0 HOLCOMB BRIDGE & OLD ROSWELL,34.031756,-84.339365,,,,,,0
21050,902857,HOLCOMB BRIDGE RD @ MARKET PL,0 HOLCOMB BRIDGE RD & MARKET PL,34.031503,-84.339631,0,,,,,0
21052,902858,HOLCOMB BRIDGE RD @ MARKET PL,0 HOLCOMB BRIDGE & MARKET,34.030893,-84.338273,,,,,,0
21054,902790,HOLCOMB BRIDGE RD @ MARKET PL,0 HOLCOMB BRIDGE RD & MARKET PL,34.030606,-84.338436,0,,,,,0
21056,902791,HOLCOMB BRIDGE RD @ WARSAW RD,0 HOLCOMB BRIDGE RD & WARSAW RD,34.028137,-84.335359,0,,,,,1
21058,902792,HOLCOMB BRIDGE RD @ WARSAW RD,0 HOLCOMB BRIDGE RD & WARSAW RD,34.028164,-84.33501,0,,,,,1
21060,902829,HOLCOMB BRIDGE RD @ RIVERWOOD LN,0 HOLCOMB BRIDGE RD & RIVERWOOD LN,34.025972,-84.332631,0,,,,,1
21062,902830,HOLCOMB BRIDGE RD @ OLD HOLCOMB BRIDGE RD,0 HOLCOMB BRIDGE RD & OLD HOLCOMB BRIDGE RD,34.025936,-84.332173,0,,,,,1
21064,902831,HOLCOMB BRIDGE RD @ DOGWOOD RD,0 HOLCOMB BRIDGE RD & DOGWOOD RD,34.024051,-84.329735,0,,,,,1
21066,902962,HOLCOMB BRIDGE RD @ DOGWOOD RD,0 HOLCOMB BRIDGE RD & DOGWOOD RD,34.023663,-84.329729,0,,,,,1
21070,902963,ALPHARETTA ST @ MANSELL CIR,0 ALPHARETTA ST & MANSELL CIR,34.03456,-84.346412,,,,,,1
21074,902965,ALPHARETTA ST @ COMMERCE PKWY,0 ALPHARETTA ST & COMMERCE PKY,34.039034,-84.342788,0,,,,,1
21076,902923,ALPHARETTA ST @ 10761,0 ALPHARETTA ST & MANSELL RD,34.041012,-84.341972,0,,,,,1
21079,902924,ALPHARETTA ST @ MANSELL RD,0 ALPHARETTA & MANSELL,34.042066,-84.341461,,,,,,1
21080,902925,ALPHARETTA HWY @ HOUZE WAY,0 ALPHARETTA HWY & HOUZE WAY,34.046247,-84.339955,0,,,,,1
21082,902926,ALPHARETTA HWY @ MANSELL RD,0 ALPHARETTA & MANSELL,34.043225,-84.341303,0,,,,,1
21084,902966,ALPHARETTA ST @ 1240,1240 ALPHARETTA ST & EAGLESCREST VILLAGE LN,34.032394,-84.351059,,,,,,1
21096,902967,ALPHARETTA ST @ HOUZE RD,0 ALPHARETTA ST & HOUZE RD,34.038247,-84.343293,0,,,,,1
21097,902968,NORTH POINT PKWY @ NORTH POINT CT,0 NORTH POINT PKY & NORTH POINT CT,34.047978,-84.288581,,,,,,1
21098,902927,HOLCOMB BRIDGE RD @ OLD DOGWOOD RD,0 HOLCOMB BRIDGE RD & OLD DOGWOOD RD,34.022649,-84.327341,0,,,,,1
21104,903114,HAYNES BRIDGE RD @ NORTH POINT DR,0 HAYNES BRIDGE & NORTH POINT,34.050373,-84.286285,,,,,,1
21112,903079,HOLCOMB BRIDGE RD @ GRIMES BRIDGE RD,0 HOLCOMB BRIDGE RD & GRIMES BRIDGE RD,34.033917,-84.34207,0,,,,,1
21120,903080,ALPHARETTA HWY @ 10885,0 ALPHARETTA & HOUZE,34.044437,-84.34047,0,,,,,1
21122,903116,MANSELL RD @ KINGSWOOD PL,0 MANSELL RD & KINGSWOOD PL,34.039993,-84.321853,,,,,,1
21124,903117,MANSELL RD @ 980,,34.042906,-84.332376,0,,,,,0
21128,903119,MANSELL RD @ DAVIS DR,0 MANSELL RD & DAVIS DR,34.040405,-84.315684,0,,,,,1
21950,903120,MANSELL PARK & RIDE - ON RAMP,2158 MANSELL RD,34.03815,-84.313769,,,,,,1
21951,903177,MANSELL PARK & RIDE - IN LOT,2158 MANSELL RD,34.039068,-84.313057,0,,,,,1
21954,903078,ALPHARETTA ST @ 10730,10730 ALPHARETTA HWY,34.041281,-84.342017,0,,,,,1
21962,902633,MANSELL RD @ OLD ROSWELL RD,0 MANSELL RD & OLD ROSWELL RD,34.042478,-84.327029,0,,,,,1
21964,902634,MANSELL RD @ KINGSWOOD PL,0 MANSELL RD & KINGSWOOD PL,34.040223,-84.321399,0,,,,,1
21966,902635,MANSELL RD @ COLONIAL CTR PKWY,0 MANSELL RD & COLONIAL CENTER PKY,34.042633,-84.327472,,,,,,1
22016,902636,NORTH POINT PKWY @ MANSELL RD,0 NORTH POINT & MANSELL,34.039212,-84.305718,0,,,,,1
22018,902682,NORTH POINT PKWY @ 7731,,34.039656,-84.305796,0,,,,,1
22022,902732,NORTH POINT PKWY @ 7301,7301 NORTH POINT PKY,34.042031,-84.303728,0,,,,,1
22024,902733,NORTH POINT PKWY @ 7231,7391 NORTH POINT PKY & CENTER BRIDGE RD,34.04309,-84.302143,0,,,,,1
22028,902735,NORTH POINT PKWY @ 6440,6440 NORTH POINT PKY,34.045281,-84.293695,0,,,,,0
22030,902841,NORTH POINT PWKY @ 6499,6499 NORTH POINT PKY,34.045385,-84.29407,,,,,,1
22042,902801,NORTH POINT PKWY @ ENCORE PKWY,0 NORTH POINT PKY & CENTER BRIDGE RD,34.044106,-84.299527,0,,,,,1
22044,902802,NORTH POINT PKWY @ ENCORE PKWY,0 NORTH POINT PKY & ENCORE PKWY,34.043757,-84.299767,0,,,,,1
22060,902872,NORTH POINT PKWY @ MANSELL RD,0 NORTH POINT PKWY & MANSELL RD,34.0383,-84.30651,0,,,,,1
22066,902803,NORTH POINT PKWY @ 7300,7500 NORTH POINT PKY & NORTH POINT CT,34.042954,-84.301809,0,,,,,1
22068,902804,NORTH POINT PKWY @ 7300,7300 NORTH POINT PKY,34.042047,-84.303222,0,,,,,1
26002,902929,ROSWELL RD @ HOPE RD,0 ROSWELL & HOPE,33.990749,-84.351896,0,,,,,1
26004,902930,ROSWELL RD @ HUNTCLIFF NE,0 ROSWELL RD & HUNTCLIFF NE,33.992786,-84.351707,0,,,,,1
26006,902931,ROSWELL RD @ 8740,,33.994862,-84.351372,,,,,,1
26007,902932,ROSWELL RD @ RIVER PKWY,0 ROSWELL RD & N RIVER PKY,34.001514,-84.35046,,,,,,0
26010,902983,ROSWELL RD @ ROBERTS DR,0 ROSWELL RD & ROBERTS DR,34.002715,-84.350625,0,,,,,0
26011,902984,ROSWELL RD @ DUNWOODY PL,0 ROSWELL & DUNWOODY,33.999743,-84.350622,,,,,,1
26018,902985,ROSWELL RD @ 8775,,33.998459,-84.350533,,,,,,1
26020,902933,ROSWELL RD @ 9040,,34.000168,-84.350372,,,,,,1
26022,903050,ROSWELL RD @ RIVER PKWY,0 ROSWELL & RIVER,34.001392,-84.350327,,,,,,1
26025,903051,ROSWELL RD @ ROBERTS DR,0 ROSWELL RD & ROBERTS DR,34.002964,-84.350417,,,,,,0
26026,903129,ATLANTA ST @ RIVERSIDE RD,0 ROSWELL RD & RIVERSIDE RD,34.005827,-84.35068,,,,,,0
26029,903130,ATLANTA ST @ CHATTAHOOCHEE CIR,0 S ATLANTA ST & CHATTAHOOCHEE CIR,34.007536,-84.353101,,,,,,0
26030,903131,ATLANTA ST @ WARM SPRINGS CIR,0 S ATLANTA ST & WARM SPRINGS CIR,34.00877,-84.35729,,,,,,0
26032,903132,ATLANTA ST @ JONES DR,0 S ATLANTA ST & JONES DR,34.008653,-84.359842,,,,,,1
26034,903052,ATLANTA ST @ KING ST,0 ATLANTA ST & KING ST,34.012419,-84.362778,,,,,,1
26036,903053,ATLANTA ST @ MILL ST,0 ATLANTA & MILL,34.014088,-84.362854,,,,,,1
26040,903081,ATLANTA ST @ OXBO RD,0 ATLANTA & MAPLE,34.017566,-84.362035,0,,,,,1
26044,903082,ATLANTA ST @ WARM SPRINGS CIR,0 S ATLANTA ST & WARM SPRINGS CIR,34.008698,-84.357443,,,,,,1
26045,903133,ATLANTA ST @ CHATTAHOOCHEE CIR,0 ATLANTA & CHATTAHOOCHEE,34.007196,-84.352782,0,,,,,0
26046,903134,ATLANTA ST @ JONES DR,0 S ATLANTA ST & JONES DR,34.008608,-84.360006,0,,,,,0
26047,903135,ATLANTA ST @ AZALEA DR,0 S ATLANTA ST & AZALEA DR,34.006006,-84.350938,0,,,,,0
26048,903136,ATLANTA ST @ 426,408 S ATLANTA ST,34.009771,-84.361282,0,,,,,0
26050,903141,ATLANTA ST @ CHATTAHOOCHEE ST,0 ATLANTA ST & CHATTAHOOCHEE ST,34.01181,-84.3628,,,,,,0
26052,903142,DUNWOODY PL @ ROBERTS DR,8601 DUNWOODY,33.990045,-84.342489,0,,,,,0
26056,902651,DUNWOODY PL @ ROSWELL RD,8725 DUNWOODY PL & ROSWELL RD,33.995324,-84.349044,0,,,,,1
26072,902645,DUNWOODY PL @ N RIVER DR,0 DUNWOODY PL & NORTH RIVER DR,33.993336,-84.347317,0,,,,,1
26080,902692,ROSWELL RD @ HUNTINGTON PLACE DR,0 ROSWELL RD & HUNTINGTON PL DR,33.992441,-84.351526,,,,,,1
26084,902694,ATLANTA ST @ SLOAN ST,0 ATLANTA ST & SLOAN ST,34.015363,-84.362834,,,,,,1
26086,902695,DUNWOODY PL @ ROSWELL RD,0 DUNWOODY PL & ROSWELL RD,33.995545,-84.349492,0,,,,,1
27004,902745,DUNWOODY PL @ ROBERTS DR,0 DUNWOODY PL & ROBERTS DR,33.990268,-84.343129,,,,,,0
27005,906297,DUNWOODY PL @ HIGHTOWER TRL,0 DUNWOODY PL & HIGHTOWER TRL,33.985837,-84.341582,0,,,,,0
27008,906298,DUNWOODY PL @ 8700,,33.991574,-84.345026,,,,,,0
27010,906282,DUNWOODY PL @ 8800,,33.991476,-84.34507,,,,,,0
27014,906284,DUNWOODY PL @ HOPE RD,0 DUNWOODY PL & HOPE RD,33.993077,-84.347099,0,,,,,1
31002,906299,JETT FERRY RD @ DUNWOODY CLUB DR,0 JETT FERRY RD & DUNWOODY CLUB DR,33.960004,-84.302486,0,,,,,0
32002,906300,ROSWELL RD NE @ TROWBRIDGE RD,,33.959381,-84.365227,,,,,,1
32004,906301,ROSWELL RD @ 7546,,33.963367,-84.364922,,,,,,0
32006,906302,ROSWELL RD @ 7741,,33.966001,-84.362952,0,,,,,1
32012,906286,ROSWELL RD @ HAMPTON DE,ROSWELL RD & HAMPTON DR,33.973406,-84.357112,,,,,,1
32014,906287,ROSWELL RD @ BRANTLEY RD,0 ROSWELL & BRANTLEY,33.974342,-84.355011,,,,,,1
32016,906288,ROSWELL RD @ PITTS RD,0 ROSWELL RD & PITTS RD,33.974982,-84.353657,0,,,,,0
32017,906357,ROSWELL RD @ NORTHRIDGE CROSSING DR,0 ROSWELL RD & NORTHRIDGE CROSSING,33.977017,-84.351561,,,,,,1
32020,906358,ROSWELL RD @ 8215,,33.978828,-84.350815,,,,,,0
32022,906359,ROSWELL RD @ NORTHRIDGE RD,0 ROSWELL & NORTHRIDGE,33.981735,-84.350197,,,,,,1
32025,906321,ROSWELL RD @ NORTHRIDGE PKWY,0 ROSWELL RD & NORTHRIDGE PKWY,33.984839,-84.350394,0,,,,,1
32026,906352,ROSWELL RD @ HIGHTOWER TRL,0 ROSWELL RD & HIGHTOWER TRL,33.988584,-84.351328,,,,,,1
32028,906353,ROSWELL RD @ TROWBRIDGE RD,0 ROSWELL RD NE & TROWBRIDGE RD,33.959077,-84.365335,,,,,,1
32032,906354,ROSWELL RD @ 7730,,33.965767,-84.363429,0,,,,,0
32034,906355,ROSWELL RD @ MORGAN FALLS RD,0 ROSWELL RD & MORGAN FALLS RD,33.968905,-84.361109,0,,,,,1
32036,906322,ROSWELL RD @ 7840,,33.970417,-84.359618,,,,,,1
32038,906323,ROSWELL RD @ 7878,,33.971504,-84.358749,0,,,,,1
32040,906324,ROSWELL RD @ GROGANS FERRY RD,0 ROSWELL & GROGANS FERRY,33.973217,-84.357605,,,,,,1
32042,906325,ROSWELL RD @ BRANTLEY RD,0 ROSWELL & BRANTLEY,33.974358,-84.355637,,,,,,1
32044,906356,ROSWELL RD @ ISON RD,7840 ROSWELL RD & ISON RD,33.975328,-84.353281,0,,,,,1
32045,903061,ROSWELL RD @ NORTHRIDGE CROSSING DR,0 ROSWELL & NORTHRIDGE CROSSING,33.976992,-84.351929,,,,,,0
32046,903065,ROSWELL RD @ 8215,,33.97891,-84.351072,,,,,,0
32050,903067,ROSWELL RD @ NORTHRIDGE PKWY,0 ROSWELL & NORTHRIDGE,33.984341,-84.350603,0,,,,,1
32051,903068,ROSWELL RD @ 8450,,33.985727,-84.350793,,,,,,1
32053,903145,ROSWELL RD @ HIGHTOWER TRL,0 ROSWELL & HIGHTOWER,33.987788,-84.351409,,,,,,1
32070,903149,ROSWELL RD @ MORGAN FALLS RD,0 ROSWELL & MORGAN FALLS,33.968332,-84.361253,0,,,,,1
32072,903150,ROSWELL RD @ 7840,,33.969747,-84.360081,0,,,,,1
32080,902656,ROSWELL RD @ 7525,,33.96137,-84.36559,0,,,,,1
32082,902713,ROSWELL RD @ NORTHRIDGE RD,0 ROSWELL & NORTHRIDGE,33.981056,-84.350434,,,,,,1
33016,902658,DUNWOODY PL @ NORTHRIDGE PKWY,0 DUNWOODY PL & NORTHRIDGE PKY,33.984747,-84.341274,,,,,,1
33017,902659,DUNWOODY PL @ HIGHTOWER TRL,0 DUNWOODY PL & HIGHTOWER TRL,33.986179,-84.341481,0,,,,,1
33018,902660,DUNWOODY PL @ NORTHRIDGE RD,0 DUNWOODY PL & NORTHRIDGE RD,33.982745,-84.342808,,,,,,0
35010,902782,ROSWELL RD @ 7865,,33.97147,-84.358452,0,,,,,1
35016,902783,ROSWELL RD NE @ ALDERWOOD PL,,33.939001,-84.376462,,,,,,1
35018,902849,ROSWELL RD NE @ 6851,,33.942158,-84.373298,0,,,,,1
35020,902850,ROSWELL RD @ CIMARRON PKWY,7640 ROSWELL RD & CIMARRON PKWY,33.962807,-84.365623,0,,,,,1
35022,902851,ROSWELL RD NE @ SPALDING DR NE,0 ROSWELL & SPALDING,33.945827,-84.370956,,,,,,1
35024,902784,ROSWELL RD NE @ 7070,,33.948154,-84.370522,,,,,,0
35027,902785,ROSWELL RD NE @ 7140,,33.949751,-84.369406,,,,,,0
35031,902786,ROSWELL RD NE @ 7155,,33.950971,-84.368442,,,,,,1
35033,902812,ROSWELL RD NE @ 7155,,33.950723,-84.36817,,,,,,1
35034,902852,ROSWELL RD NE @ DALRYMPLE RD NE,,33.955399,-84.364582,,,,,,1
35038,902853,ROSWELL RD NE @ DALRYMPLE RD NE,0 ROSWELL RD NE & DALRYMPLE RD NE,33.956008,-84.364386,,,,,,1
35040,902854,ROSWELL RD NE @ 7447,,33.956905,-84.364632,,,,,,1
35046,902814,ROSWELL RD NE @ 6940,,33.944982,-84.371702,0,,,,,1
35047,902815,ROSWELL RD NE @ 6900,,33.943185,-84.372831,,,,,,1
35048,902958,ROSWELL RD NE @ SPALDING DR NE,0 ROSWELL & SPALDING,33.946217,-84.371246,,,,,,1
35060,902995,ROSWELL RD NE @ 6550,6500 ROSWELL RD NE & 6550,33.933925,-84.38,0,,,,,1
35066,902961,ROSWELL RD NE @ ABERNATHY RD,0 ROSWELL RD NE & ABERNATHY RD NW,33.936055,-84.379108,,,,,,1
35129,903107,ROSWELL RD NE @ 7256,,33.953271,-84.366776,0,,,,,1
35132,903109,ROSWELL RD NE @ 7256,,33.95277,-84.366646,,,,,,1
35134,903194,ROSWELL RD NE @ 7070,,33.948013,-84.370843,0,,,,,1
35135,903195,ROSWELL RD NE @ 7100,,33.949427,-84.370188,,,,,,0
35144,903111,ROSWELL RD NE @ ALDERWOOD PL,,33.938651,-84.377007,,,,,,1
35146,903112,ROSWELL RD NE @ ABERNATHY RD NW,,33.936011,-84.378901,,,,,,1
35900,902725,NORTH SPRINGS STATION,7020 PEACHTREE DUNWOODY  RD  NE,33.945416,-84.357235,,,,,,1
36002,902726,ASHFORD DUNWOODY RD @ ASHFORD PKWY,0 ASHFORD DUNWOODY RD NE & ASHFORD PKY,33.93416,-84.337574,0,,,,,1
36003,902727,ASHFORD DUNWOODY RD @ ASHFORD CENTER,0 ASHFORD DUNWOODY RD NE & ASHFORD CENTER PKY,33.939811,-84.338063,0,,,,,1
36004,902728,ASHFORD DUNWOODY RD @ VALLEY VIEW RD,0 ASHFORD DUNWOODY RD NE & VALLEY VIEW RD,33.936201,-84.337755,,,,,,1
36005,902668,ASHFORD DUNWOODY RD @ ASHFORD CENTER PKWY,0 ASHFORD DUNWOODY RD NE & ASHFORD CENTER PKY,33.938949,-84.338213,,,,,,1
36006,902669,ASHFORD DUNWOODY RD @ ASHFORD CTR N,0 ASHFORD DUNWOODY RD NE & ASHFORD CTR N,33.941293,-84.338235,,,,,,1
36038,902864,CHAMBLEE DUNWOODY RD @ MT VERNON RD,0 CHAMBLEE DUNWOODY RD & MT VERNON RD,33.946237,-84.334555,0,,,,,0
36040,902865,CHAMBLEE DUNWOODY RD @ NANDINA LN,0 CHAMBLEE DUNWOODY RD & NANDINA LN,33.947692,-84.335512,,,,,,1
36050,902866,CHAMBLEE DUNWOODY RD @ DUNWOODY VILLAGE PKWY,0 CHAMBLEE DUNWOODY RD & DUNWOODY VILLAGE PKY,33.949327,-84.336322,0,,,,,1
36088,903004,ASHFORD DUNWOODY RD @ ASHFORD CTR N,0 ASHFORD DUNWOODY RD NE & ASHFORD CTR N,33.941633,-84.338323,,,,,,0
36090,903005,ASHFORD DUNWOODY RD @ ASHFORD GABLES,0 ASHFORD DUNWOODY RD NE & ASHFORD GABLES DR,33.936667,-84.338028,,,,,,0
36092,903006,ASHFORD DUNWOODY RD @ ASHWOOD PKWY,0 ASHFORD DUNWOODY RD NE & ASHWOOD PKY,33.933861,-84.33788,0,,,,,1
36096,902973,ASHFORD DUNWOODY RD @ MEADOW LANE RD,0 ASHFORD DUNWOODY RD NE & MEADOW LN,33.931611,-84.33758,0,,,,,1
36098,902974,ASHFORD DUNWOODY RD @ MT VERNON RD,0 ASHFORD DUNWOODY RD NE & MT VERNON RD,33.94277,-84.337898,,,,,,1
36112,902970,DUNWOODY VILLAGE PKWY @ MT VERNON RD,0 DUNWOODY VILLAGE & MT VERNON,33.947607,-84.331618,,,,,,0
36114,902971,DUNWOODY VILLAGE PKWY @ 1424,1424 DUNWOODY VILLAGE & CHAMBLEE DUNWOODY,33.949367,-84.33265,,,,,,0
37002,903121,N PEACHTREE RD @ KINGS POINT DR,0 PEACHTREE & KINGS POINT,33.9308,-84.294692,0,,,,,1
37003,903122,MT VERNON RD @ TILLY MILL RD,0 MT VERNON RD & TILLY MILL RD,33.955505,-84.305317,0,,,,,1
37004,903123,N PEACHTREE RD @ KINGS POINT DR,0 N PEACHTREE RD & KINGS POINT DR,33.93141,-84.294867,0,,,,,1
37005,903124,MT VERNON RD @ MEADOW LAKE DR,0 MT VERNON & MEADOW LAKE,33.95243,-84.31196,0,,,,,0
37007,903205,MT VERNON RD @ MEADOW LAKE DR,0 MT VERNON & MEADOW LAKE,33.95264,-84.31175,0,,,,,0
37008,903206,TILLY MILL RD @ CHERRING DR,0 TILLY MILL RD & CHERRING DR,33.93894,-84.297082,0,,,,,0
37009,903207,MT VERNON RD @ MANHASSET DR,0 MT VERNON RD & MANHASSET DR,33.950576,-84.319323,0,,,,,1
37010,903125,TILLY MILL RD @ CHERRING DR,0 TILLY MILL RD & CHERRING DR,33.938991,-84.297033,,,,,,1
37011,903126,MT VERNON RD @ VERMACK RD,0 MT VERNON & VERMACK,33.95026,-84.31968,0,,,,,0
37012,903127,TILLY MILL RD @ DARTFORD DR,0 TILLY MILL & DARTFORD,33.944782,-84.301552,,,,,,1
37013,903128,MT VERNON RD @ VERNON RIDGE DR,0 MT VERNON & VERNON RIDGE,33.94779,-84.32686,0,,,,,1
37014,903208,TILLY MILL RD @ TILLINGHAM CT,0 TILLY MILL & TILLINGHAM,33.942707,-84.299725,,,,,,1
37016,902683,TILLY MILL RD @ STEPHENS WALK,0 TILLY MILL RD & STEPHENS WALK,33.94658,-84.30315,0,,,,,1
37018,902685,TILLY MILL RD @ DARTFORD DR,0 TILLY MILL & DARTFORD,33.94502,-84.30191,0,,,,,1
37019,902686,MT VERNON RD @ STRATHAM DR,0 MT VERNON & STRATHAM,33.95162,-84.3147,0,,,,,0
37020,902736,TILLY MILL RD @ STEPHENS WALK,0 TILLY MILL RD & STEPHENS WALK,33.946676,-84.303415,0,,,,,0
37021,902737,MT VERNON RD @ STRATHAM DR,0 MT VERNON RD & STRATHAM DR,33.951781,-84.31463,0,,,,,0
37022,902738,TILLY MILL RD @ SANDELL DR,0 TILLY MILL & SANDELL,33.95288,-84.30546,0,,,,,1
37024,902687,TILLY MILL RD @ SANDELL DR,0 TILLY MILL & SANDELL,33.9531,-84.30563,0,,,,,0
37026,902688,MT VERNON RD @ CEDAR CHASE,0 MT VERNON RD & CEDAR CHAS,33.956406,-84.30397,0,,,,,1
37028,902689,JETT FERRY RD @ MT VERNON RD,0 JETT FERRY RD & MT VERNON RD,33.958252,-84.302457,0,,,,,0
37030,902690,MT VERNON RD @ JETT FERRY RD,0 MT VERNON RD & JETT FERRY RD,33.957981,-84.30187,0,,,,,1
37032,902740,TILLY MILL RD @ HOLLAND CT,0 TILLY MILL & HOLLAND,33.949333,-84.30481,,,,,,1
37034,902741,PEELER RD @ GLENBONNIE DR,0 PEELER RD & GLENBONNIE DR,33.93687,-84.28694,0,,,,,1
37036,902742,PEELER RD @ EDISON RD,0 PEELER RD & EIDSON RD,33.937242,-84.285592,,,,,,0
37038,902743,PEELER RD @ HAPPY HOLLOW RD,0 PEELER RD & HAPPY HOLLOW RD,33.939174,-84.282987,0,,,,,1
37042,902874,PEELER RD @ LAKESIDE DR,0 PEELER & LAKESIDE,33.94012,-84.2785,0,,,,,0
37044,902875,PEELER RD @ FOUR OAKS CT,0 PEELER RD & FOUR OAKS CT,33.94046,-84.274618,0,,,,,0
37048,902805,WINTERS CHAPEL RD @ PEELER RD,0 WINTERS CHAPEL RD NW & PEELER RD,33.941174,-84.270802,,,,,,0
37050,902806,WINTERS CHAPEL RD @ 4920,4920 WINTERS CHAPEL RD NW,33.93943,-84.26947,0,,,,,0
37052,902807,WINTERS CHAPEL RD @ WOMACK DR,0 WINTERS CHAPEL RD NW & WOMACK DR NW,33.935409,-84.26684,,,,,,1
37054,902833,WINTERS CHAPEL RD @ 4739,4739 WINTERS CHAPEL RD NW,33.933932,-84.266111,,,,,,1
37060,902877,PEELER RD @ VILLAGE MILL RD,0 PEELER RD & VILLAGE MILL RD,33.931727,-84.309544,,,,,,1
37062,902878,PEELER RD @ ADAMS RD,0 PEELER RD & ADAMS RD,33.93493,-84.306253,0,,,,,1
37064,902879,PEELER RD @ EQUESTRIAN WAY,0 PEELER RD & EQUESTRIAN WAY,33.934769,-84.306602,,,,,,0
37068,902880,PEELER RD @ CHERRING DR,0 PEELER & CHERRING,33.93593,-84.29862,0,,,,,1
37072,902835,TILLY MILL RD @ N PEACHTREE RD,0 TILLY MILL RD & N PEACHTREE RD,33.937093,-84.294462,,,,,,0
37074,902836,TILLY MILL RD @ WOMACK RD,0 TILLY MILL RD & WOMACK RD,33.943484,-84.299985,,,,,,1
37076,902837,TILLY MILL RD @ MT VERNON RD,0 TILLY MILL & MT VERNON,33.954907,-84.3054,,,,,,1
37078,902934,DUNWOODY CLUB DR @ MT VERNON RD,0 DUNWOODY CLUB & SAFFRON,33.959321,-84.300203,0,,,,,0
37080,902935,TILLY MILL RD @ HOLLAND CT,0 TILLY MILL & HOLLAND,33.949399,-84.305084,,,,,,0
37082,902936,TILLY MILL RD @ N PEACHTREE RD,0 TILLY MILL RD & N PEACHTREE RD,33.936681,-84.294026,,,,,,1
37084,903016,N PEACHTREE RD @ BARCLAY DR,0 N PEACHTREE RD & BARCLAY DR,33.933504,-84.294899,0,,,,,1
37086,903017,N PEACHTREE RD @ PEACHFORD RD,,33.929159,-84.295466,0,,,,,1
37088,903018,N PEACHTREE RD @ BROOKHURST DR,0 PEACHTREE & BROOKHURST,33.92667,-84.29543,0,,,,,0
37092,902937,PEELER RD @ CHERRING DR,0 PEELER RD & CHERRING DR,33.935796,-84.298756,,,,,,0
37100,903020,PEELER RD @ OLDE VILLAGE LN,0 PEELER RD & OLDE VILLAGE LN,33.934277,-84.307964,,,,,,1
37102,903021,PEELER RD @ INDEPENDENCE SQ,0 PEELER RD & INDEPENDENCE SQ,33.93047,-84.31106,0,,,,,0
37110,903144,PEELER RD @ CHERRING LN,0 PEELER RD & CHERRING LN,33.93584,-84.295901,0,,,,,0
38002,903137,RIVEREDGE PKWY NW @ 1600,1600 RIVEREDGE PKY NW,33.907734,-84.43808,0,,,,,0
38008,903140,NORTHSIDE DR @ INTERSTATE NORTH PKWY,0 NORTHSIDE & INTERSTATE NORTH,33.908628,-84.432956,0,,,,,0
38012,903182,INTERSTATE NORTH PKWY @ 5665,5665 INTERSTATE NORTH PKY NW & LAKEMOORE DR NE,33.909359,-84.431746,,,,,,1
39002,903221,HAMMOND DR NE @ KAYRON DR,0 HAMMOND & KAYRON,33.919041,-84.371799,0,,,,,0
39004,903222,HAMMOND DR @ KAYRON DR,0 HAMMOND DR NE & KAYRON DR NE,33.919091,-84.371623,,,,,,0
39018,903184,JOHNSON FERRY RD NE @ GLENRIDGE DR NE,0 JOHNSON FERRY RD NE & GLENRIDGE DR NE,33.92229,-84.36787,0,,,,,0
39024,902746,JOHNSON FERRY RD NE @ GLENRIDGE DR NE,0 JOHNSON FERRY RD NE & GLENRIDGE DR NE,33.922431,-84.367997,,,,,,1
39040,902747,ROSWELL RD NE @ STEWART DR NE,,33.901628,-84.37916,0,,,,,1
39042,902696,ROSWELL RD NE @ GLENRIDGE DR NE,0 ROSWELL RD NE & GLENRIDGE DR NE,33.902783,-84.378606,,,,,,0
39044,902697,ROSWELL RD NE @ 5600,0 ROSWELL RD NE & LAKE PLACID DR NE,33.905641,-84.378732,0,,,,,1
39046,902698,ROSWELL RD NE @ 5630,,33.907231,-84.378718,0,,,,,1
39048,902699,ROSWELL RD NE @ LAKE PLACID DR NE,0 ROSWELL RD NE & LAKE PLACID DR NE,33.909097,-84.378898,0,,,,,1
39052,902749,ROSWELL RD NE @ ALLEN RD,0 ROSWELL RD & ALLEN RD,33.91372,-84.37955,0,,,,,1
39058,902751,ROSWELL RD NE @ HAMMOND DR NE,0 ROSWELL RD NE & HAMMOND DR NE,33.918569,-84.379175,0,,,,,1
39060,902700,ROSWELL RD NE @ HILDERBRAND DR NE,0 ROSWELL RD NE & HILDERBRAND DR NE,33.922681,-84.379284,0,,,,,1
39064,902702,ROSWELL RD NE @ SANDY SPRINGS CIR NE,0 ROSWELL & SANDY SPRINGS,33.927011,-84.379415,,,,,,1
39065,902703,HAMMOND DR NE @ ROSWELL RD,0 HAMMOND & ROSWELL,33.91918,-84.378784,0,,,,,1
39067,906303,ROSWELL RD @ JOHNSON FERRY RD,0 ROSWELL RD NE & JOHNSON FERRY RD NE,33.92547,-84.37922,0,,,,,1
39068,906304,ROSWELL RD NE @ CROMWELL RD NE,0 ROSWELL & CROMWELL,33.929142,-84.379456,,,,,,0
39070,906305,ROSWELL RD NE @ GLENRIDGE DR NE,,33.90342,-84.37841,0,,,,,1
39074,906290,ROSWELL RD NE @ LAKE PLACID DR NE,0 ROSWELL RD NE & LAKE PLACID DR NE,33.909522,-84.378654,,,,,,1
39078,906292,ROSWELL RD NE @ ALLEN RD NE,0 ROSWELL RD & ALLEN RD,33.914017,-84.379242,,,,,,1
39080,906293,ROSWELL RD NE @ CARPENTER DR NE,,33.915251,-84.379179,0,,,,,1
39082,906307,ROSWELL RD NE @ 5925,,33.917522,-84.379041,,,,,,1
39084,906308,ROSWELL RD NE @ HAMMOND DR NE,0 ROSWELL & HAMMOND,33.918624,-84.378939,0,,,,,1
39086,906309,ROSWELL RD NE @ SANDY SPRINGS PL NE,0 ROSWELL RD NE & SANDY SPRINGS PL NE,33.920053,-84.378914,0,,,,,1
39090,906294,ROSWELL RD NE @ HILDERBRAND DR NE,0 ROSWELL & HILDERBRAND,33.922843,-84.37909,0,,,,,1
39092,906326,ROSWELL RD NE @ MT VERNON HWY NE,0 ROSWELL & MT VERNON,33.924043,-84.379014,0,,,,,0
39095,906330,ROSWELL RD NE @ JOHNSON FERRY RD NE,0 ROSWELL & JOHNSON FERRY,33.925374,-84.379009,,,,,,1
39096,906331,ROSWELL RD NE @ SANDY SPRINGS CIR NE,0 ROSWELL & SANDY SPRINGS,33.92717,-84.37906,,,,,,0
39098,906332,ROSWELL RD NE @ VERNON WOODS DR NE,0 ROSWELL RD NE & VERNON WOODS DR NE,33.929308,-84.37919,0,,,,,1
39100,906360,ROSWELL RD NE @ 6569,6509 ROSWELL RD NE & 6569,33.934417,-84.379717,0,,,,,1
39102,906361,ROSWELL RD NE @ CLIFTWOOD DR NE,0 ROSWELL RD NE & CLIFTWOOD DR NE,33.916242,-84.379236,,,,,,1
39124,906363,JOHNSON FERRY RD @ KAYRON DR,0 JOHNSON FERRY RD NE & KAYRON DR NE,33.923038,-84.370644,,,,,,0
39126,906333,JOHNSON FERRY RD @ KAYRON DR,0 JOHNSON FERRY RD NE & KAYRON DR NE,33.923162,-84.370797,0,,,,,1
39144,906334,ROSWELL RD NE @ SANDY SPRINGS PL NE,0 ROSWELL RD NE & SANDY SPRINGS PL NE,33.920108,-84.379042,0,,,,,1
39150,906335,ROSWELL RD NE @ PERUCA PL NE,5491 ROSWELL,33.905999,-84.378569,0,,,,,1
39184,903096,MT VERNON HWY NW @ HAMMOND DR NW,0 MOUNT VERNON HWY NW & HAMMOND DR NW,33.91969,-84.390942,0,,,,,1
39194,902663,JOHNSON FERRY RD @ HARLESTON RD,0 JOHNSON FERRY RD NE & HARLESTON RD NE,33.923672,-84.374948,,,,,,0
39196,902664,HAMMOND DR @ BOYLSTON DR,0 HAMMOND & BOYLSTON,33.919219,-84.376439,,,,,,0
39198,902753,HAMMOND DR @ BOYLSTON DR,0 HAMMOND DR & BOYLSTON DR,33.919036,-84.376903,0,,,,,1
40017,902665,HAMMOND DR NE @ GLENRIDGE DR NE,0 HAMMOND DR NE & GLENRIDGE DR NE,33.918924,-84.363267,0,,,,,1
40038,902704,HAMMOND DR @ CONCOURSE PKWY,0 HAMMOND DR NE & CONCOURSE PKWY,33.91911,-84.35298,0,,,,,1
40050,902816,HAMMOND DR NE @ CONCOURSE PKWY,1005 HAMMOND DR NE,33.9188,-84.35473,0,,,,,1
40086,902888,HAMMOND DR @ PEACHTREE DUNWOODY RD,0 HAMMOND DR NE & PEACHTREE DUNWOODY RD NE,33.91878,-84.34979,0,,,,,1
40118,902889,ASHFORD DUNWOODY RD @ RAVINIA DR,0 ASHFORD DUNWOODY RD NE & RAVINIA N,33.922214,-84.338831,,,,,,1
40130,902890,PEACHTREE DUNWOODY RD @ HOLLIS COBB CIR,0 PEACHTREE DUNWOODY RD NE & HOLLIS COBB CIR,33.909432,-84.352263,0,,,,,1
40152,902884,ASHFORD DUNWOODY RD NE @ RAVINIA DR,0 ASHFORD DUNWOODY & RAVINIA,33.920977,-84.338791,,,,,,0
40156,902885,PERIMETER CTR E @ ASHFORD DUNWOODY,0 PERIMETER CTR E & ASHFORD CENTER PKY,33.923825,-84.33747,,,,,,1
40158,902886,PERIMETER CTR E @ ASHFORD DUNWOODY,0 PERIMETER & ASHFORD DUNWOODY,33.926156,-84.336697,,,,,,1
40160,902891,PERIMETER CTR E @ ASHFORD DUNWOODY RD,0 PERIMETER & ASHFORD DUNWOODY,33.926453,-84.336617,,,,,,1
40208,903034,PEACHTREE DUNWOODY RD @ JOHNSON FERRY RD,0 PEACHTREE DUNWOODY RD & JOHNSON FERRY RD NE,33.907455,-84.35239,,,,,,1
40216,902999,HAMMOND DR NE @ PEACHTREE DUNWOODY RD,0 HAMMOND DR NE & PEACHTREE DUNWOODY RD,33.91899,-84.34981,0,,,,,1
40256,903001,CHAMBLEE DUNWOODY RD @ CLAIRVIEW DR,,33.890869,-84.290004,,,,,,1
40259,902868,HAMMOND DR NE @ BARFIELD RD NE,0 HAMMOND DR NE & BARFIELD RD NE,33.919113,-84.360336,,,,,,1
40298,902828,PERIMETER CTR E @ ASHFORD DUNWOODY RD,0 PERIMETER CTR E & ASHFORD DUNWOODY RD NE,33.923574,-84.337818,0,,,,,0
40300,902867,PERIMETER CTR E @ LINCOLN PKWY E,0 PERIMETER & LINCOLN,33.922102,-84.330101,,,,,,0
40304,903198,ASHFORD DUNWOODY RD @ MEADOW LANE RD,0 ASHFORD DUNWOODY RD NE & MEADOW LN,33.932067,-84.337395,,,,,,1
40318,903199,HAMMOND DR @ GLENRIDGE DR,0 HAMMOND & GLENRIDGE,33.91907,-84.3638,0,,,,,1
40506,903164,SANDY SPRINGS STATION,0 0,33.931821,-84.350969,0,,,,,1
40900,903165,MEDICAL CENTER STATION,0 PEACHTREE DUNWOODY RD & LAKE HEARN DR,33.910569,-84.351215,,,,,,1
40910,903009,DUNWOODY STATION,0 HAMMOND DR NE & PERIMETER CENTER PKY NE,33.920969,-84.344734,,,,,,1
40914,903010,HAMMOND DR NE @ BARFIELD RD,0 HAMMOND DR NE & BARFIELD RD NE,33.91886,-84.36079,0,,,,,1
40916,903039,PERIMETER CTR E @ 74,,33.923575,-84.334572,,,,,,1
40918,903040,PERIMETER CTR E @ 64,,33.92149,-84.332011,,,,,,0
40920,903041,PERIMETER CTR E @ 24,,33.925696,-84.330595,,,,,,1
40924,903011,PERIMETER CTR E @ 50,,33.92438,-84.329822,,,,,,1
40926,903012,PERIMETER CTR E @ 24,24 PERIMETER CTR E & MEADOW LN,33.925624,-84.33065,,,,,,0
40928,903013,PERIMETER CTR E @ 72,,33.923888,-84.334463,,,,,,1
40930,903014,PERIMETER CTR E @ 14,,33.92567,-84.332639,0,,,,,1
40932,903043,PERIMETER CTR E @ 53,,33.92157,-84.331761,,,,,,0
41002,903044,N PEACHTREE RD @ PEACHTREE INDUSTRIAL,0 PEACHTREE & PEACHTREE INDUSTRIAL,33.904298,-84.29515,0,,,,,1
41004,903076,N PEACHTREE RD @ 3930,,33.907868,-84.296267,0,,,,,0
41005,903077,DUNWOODY PARK @ N SHALLOWFORD RD,0 DUNWOODY & SHALLOWFORD,33.92605,-84.31076,,,,,,1
41006,903015,N PEACHTREE RD @ N SHALLOWFORD RD,0 N PEACHTREE RD & N SHALLOWFORD RD,33.910282,-84.297392,,,,,,1
41007,903037,N PEACHTREE RD @ N SHALLOWFORD RD,0 PEACHTREE & SPRING WALK,33.91154,-84.29819,0,,,,,1
41009,903038,DUNWOODY PARK @ CHAMBLEE DUNWOODY RD,0 DUNWOODY PARK & CHAMBLEE DUNWOODY RD,33.924076,-84.31471,,,,,,1
41011,902676,N PEACHTREE RD @ TALLEY DR,0 PEACHTREE & TALLEY,33.898655,-84.294073,,,,,,0
41012,902757,N PEACHTREE RD @ TERRELL DR,0 PEACHTREE & TERRELL,33.90148,-84.29449,0,,,,,0
41013,902758,DUNWOODY PARK DR @ DUNWOODY PARK N,0 DUNWOODY PARK & DUNWOODY PARK N,33.924049,-84.313904,0,,,,,0
41014,902759,N PEACHTREE RD @ PEACHTREE INDUSTRIAL BLVD,0 PEACHTREE & PEACHTREE INDUSTRIAL,33.903942,-84.29516,0,,,,,0
41016,902760,N PEACHTREE RD @ PLANTATION LN,0 N PEACHTREE RD & PLANTATION LN,33.90962,-84.297065,0,,,,,0
41020,902678,N PEACHTREE RD @ SPRING WALK CT,0 PEACHTREE & SPRING WALK,33.91208,-84.2987,0,,,,,0
41024,902679,N PEACHTREE RD @ PERIMETER PARK DR,0 PEACHTREE & PERIMETER PARK,33.917668,-84.298086,0,,,,,1
41028,902680,N PEACHTREE RD @ PERIMETER PARK DR,6350 N PEACHTREE RD & PERIMETER PARK S,33.917182,-84.298577,0,,,,,0
41030,902761,N PEACHTREE RD @ SAVOY DR,0 PEACHTREE & SAVOY,33.91926,-84.29695,0,,,,,0
41032,902762,N PEACHTREE RD @ SAVOY DR,0 PEACHTREE & SAVOY,33.91888,-84.297325,,,,,,1
41034,902763,N PEACHTREE RD @ DUNWOODY XING,0 PEACHTREE & DUNWOODY,33.922049,-84.296748,,,,,,1
41036,902764,N PEACHTREE RD @ KINGS POINT CIR,0 PEACHTREE & KINGS POINT,33.92388,-84.296,0,,,,,1
41037,902681,N PEACHTREE RD @ BROOKHURST DR,0 PEACHTREE & BROOKHURST,33.926263,-84.295208,,,,,,0
41063,903212,CHAMBLEE DUNWOODY RD @ N SHALLOWFORD RD,0 CHAMBLEE DUNWOODY RD & N SHALLOWFORD RD,33.92805,-84.314902,0,,,,,1
41074,903174,CHAMBLEE DUNWOODY RD @ N SHALLOWFORD RD,0 CHAMBLEE DUNWOODY & SHALLOWFORD,33.927816,-84.314867,,,,,,0
41098,905596,N SHALLOWFORD RD @ COMMODORE DR,0 N SHALLOWFORD RD & COMMODORE DR,33.917577,-84.303806,,,,,,0
41100,905597,SHALLOWFORD RD @ SAVOY DR,0 N SHALLOWFORD RD & SAVOY DR,33.919,-84.30476,0,,,,,0
41102,905598,N SHALLOWFORD RD @ SAVOY DR,0 N SHALLOWFORD RD & SAVOY DR,33.919689,-84.304938,,,,,,1
41104,905599,N SHALLOWFORD RD @ COTILLION DR,0 N SHALLOWFORD RD & COTILLION DR,33.921166,-84.305428,,,,,,1
41106,905482,SHALLOWFORD RD @ COTILLION DR,0 N SHALLOWFORD RD & COTILLION DR,33.921247,-84.305581,,,,,,0
41108,905483,N SHALLOWFORD RD @ PEACHFORD RD,0 SHALLOWFORD & PEACHFORD,33.92347,-84.306676,,,,,,1
41110,905484,N SHALLOWFORD RD @ 4500,,33.924919,-84.308077,,,,,,1
41114,905485,N SHALLOWFORD RD @ PERNOSHALL CT,0 N SHALLOWFORD RD & PERNOSHAL CT,33.925534,-84.308914,,,,,,0
41116,905600,N SHALLOWFORD RD @ PERNOSHALL CT,0 N SHALLOWFORD RD & PERNOSHAL CT,33.925749,-84.308946,,,,,,1
41118,905601,DUNWOODY PARK @ N SHALLOWFORD RD,0 DUNWOODY PARK & N SHALLOWFORD RD,33.926071,-84.310962,,,,,,1
41126,905834,PEELER RD @ SHALLOWFORD RD,0 PEELER RD & N SHALLOWFORD RD,33.929696,-84.313337,,,,,,0
41128,905716,PEELER RD @ INDEPENDENCE SQ,0 PEELER RD & INDEPENDENCE SQ,33.930089,-84.311495,,,,,,1
41150,905836,SHALLOWFORD RD @ PEACHFORD RD,0 SHALLOWFORD & PEACHFORD,33.923177,-84.306577,0,,,,,0
41152,905837,N PEACHTREE RD @ PEACHTREE INDUSTRIAL BLVD,0 PEACHTREE & PEACHTREE INDUSTRIAL,33.90627,-84.29578,,,,,,1
41154,905838,N PEACHTREE RD @ N HILL PKWY,N PEACHTREE RD & SPRING WALK CT,33.913683,-84.298992,,,,,,1
41156,905720,N PEACHTREE RD @ DUNWOODY XING,0 PEACHTREE & DUNWOODY,33.922156,-84.296276,,,,,,1
41158,905721,N PEACHTREE RD @ FOREST TRL,0 PEACHTREE & FOREST,33.924215,-84.296204,,,,,,1
41160,905722,N PEACHTREE RD @ N HILL PKWY,N PEACHTREE RD & N HILL PKY,33.913719,-84.299101,,,,,,1
41162,905723,N PEACHTREE RD @ PEACHTREE INDUSTRIAL BLVD,0 N PEACHTREE RD & PEACHTREE INDUSTRIAL BLVD,33.905861,-84.295945,0,,,,,0
41164,905839,PEACHTREE RD @ INGERSOLL RAND DR,0 PEACHTREE & INGERSOLL RAND,33.895703,-84.295509,,,,,,1
41166,905840,PEELER RD @ OLDE VILLAGE LN,0 PEELER & OLDE VILLAGE,33.93419,-84.3079,0,,,,,0
41168,906075,N SHALLOWFORD RD @ PEACHFORD RD,0 N SHALLOWFORD RD & PEACHFORD,33.92471,-84.30812,0,,,,,0
41170,906076,N PEACHTREE RD @ GENTRYS WALK,0 PEACHTREE & GENTRYS,33.916567,-84.299462,,,,,,1
42007,905966,WOODWIN RD @ TILLY MILL RD,0 WOODWIN & TILLY MILL,33.918877,-84.279,0,,,,,0
42009,905968,TILLY MILL RD @ PEACHTREE INDUSTRIAL BLVD,0 TILLY MILL & PEACHTREE INDUSTRIAL,33.92241,-84.28113,,,,,,0
42011,906079,PEACHTREE INDUSTRIAL BLVD @ PEACHTREE SQ,0 PEACHTREE INDUSTRIAL BLVD & PEACHTREE SQ,33.924765,-84.278342,,,,,,0
42013,906081,PEACHTREE INDUSTRIAL BLVD @ PEACHTREE SQ,0 PEACHTREE INDUSTRIAL BLVD & PEACHTREE SQ,33.9254,-84.276806,,,,,,0
42015,905970,WINTERS CHAPEL RD @ AMWILER RD NW,0 WINTERS CHAPEL RD & AMWILER RD NW,33.929394,-84.265047,,,,,,1
42016,905971,BUFORD HWY @ 5700,5700 BUFORD HWY NE,33.9072,-84.269132,0,,,,,1
42017,906015,WINTERS CHAPEL RD @ CLARKE DR,0 WINTERS CHAPEL RD & CLARKE DR,33.92805,-84.26731,0,,,,,0
42019,905262,WINTERS CHAPEL RD @ RENAISSANCE BLVD,0 WINTERS CHAPEL & RENAISSANCE BLVD,33.92633,-84.26926,,,,,,0
42021,905264,WINTERS CHAPEL RD @ HOMELAND DR,0 WINTERS CHAPEL RD & HOMELAND DR,33.924913,-84.270116,,,,,,0
42022,905375,OAKCLIFF RD @ BUFORD HWY,0 OAKCLIFF & BUFORD,33.91108,-84.26247,,,,,,0
42023,905376,WINTERS CHAPEL RD @ CHICOPEE RD,0 WINTERS CHAPEL & CHICOPEE,33.9208,-84.27014,,,,,,0
42024,905377,WINTERS CHAPEL RD @ OAKCLIFF RD,0 WINTERS CHAPEL & OAKCLIFF,33.91902,-84.26971,,,,,,0
42025,905378,WOODWIN RD @ WINTERS CHAPEL RD,0 WOODWIN & WINTERS CHAPEL,33.91494,-84.27038,,,,,,0
42026,905379,BUFORD HWY @ MCELROY RD,0 BUFORD HWY NE & MCELROY RD,33.906925,-84.269007,,,,,,1
42028,905266,BUFORD HWY @ MCELROY RD,0 BUFORD HWY NE & MCELROY RD,33.908698,-84.266926,0,,,,,1
42040,905383,N PEACHTREE RD @ TERRELL DR,0 PEACHTREE & TERRELL,33.90159,-84.29434,0,,,,,0
42042,905311,PEACHTREE INDUSTRIAL BLVD @ JOHN GLENN DR,0 PEACHTREE INDUSTRIAL BLVD & JOHN GLENN DR,33.905397,-84.294638,0,,,,,1
42048,906147,PEACHTREE INDUSTRIAL BLVD @ PEACHTREE RD,0 PEACHTREE INDUSTRIAL BLVD & PEACHTREE RD,33.909609,-84.290279,,,,,,1
42050,906173,TILLY MILL RD @ PEACHTREE INDUSTRIAL BLVD,0 TILLY MILL & PEACHTREE INDUSTRIAL,33.9246,-84.282098,0,,,,,1
42052,906174,TILLY MILL RD @ STONINGTON RD,0 TILLY MILL & STONINGTON,33.92623,-84.28284,0,,,,,1
42054,906175,TILLY MILL RD @ BINGHAMTON DR,0 TILLY MILL & BINGHAMTON,33.92797,-84.28348,0,,,,,1
42056,906176,TILLY MILL RD @ LAURELWOOD RD,0 TILLY MILL RD & LAURELWOOD RD,33.929018,-84.283711,,,,,,1
42057,906148,TILLY MILL RD @ BRIERS NORTH DR,0 TILLY MILL RD & ANDOVER DR,33.932553,-84.285213,0,,,,,1
42058,906149,PEACHTREE INDUSTRIAL BLVD @ TILLY MILL RD,0 PEACHTREE INDUSTRIAL BLVD & ACCESS RD S,33.924345,-84.280652,,,,,,1
42062,906151,PEACHTREE INDUSTRIAL BLVD @ HOMELAND DR,0 PEACHTREE INDUSTRIAL BLVD & HOMELAND DR,33.925901,-84.277437,,,,,,0
42064,906177,PEACHTREE INDUSTRIAL BLVD @ 6706,6706 PEACHTREE INDUSTRIAL BLVD & UNNAMED ST,33.926911,-84.275018,,,,,,0
42066,906178,PEACHTREE INDUSTRIAL BLVD @ PEACHTREE PLACE PKWY,0 PEACHTREE INDUSTRIAL BLVD & PEACHTREE PLACE PKY,33.929995,-84.267836,,,,,,0
42068,906179,PEACHTREE IND BLVD @ N SHALLOWFORD RD,0 PEACHTREE INDUSTRIAL BLVD & UNNAMED ST,33.909672,-84.290682,,,,,,1
42070,906180,PEACHTREE IND BLVD @ JOHN GLENN DR,0 PEACHTREE INDUSTRIAL BLVD & JOHN GLENN DR,33.905709,-84.29454,,,,,,0
42074,600041,NEW PEACHTREE RD @ 6145,,33.905443,-84.275968,0,,,,,1
42076,600043,NEW PEACHTREE RD @ LONGMIRE WAY,0 NEW PEACHTREE RD & LONGMIRE WAY,33.907455,-84.273268,0,,,,,0
42080,600045,NEW PEACHTREE RD @ MCELROY RD,0 NEW PEACHTREE RD & MCELROY RD,33.910943,-84.267686,0,,,,,0
42081,906207,NEW PEACHTREE RD @ MCELROY RD,0 NEW PEACHTREE & MCELROY,33.911097,-84.267569,0,,,,,0
42084,906232,OAKCLIFF RD @ 3061,3061 OAKCLIFF RD & UNNAMED ST,33.911012,-84.262719,,,,,,0
42088,906234,OAKCLIFF RD @ PIN OAK CIR,0 OAKCLIFF RD & PIN OAK CIR,33.906649,-84.254662,,,,,,1
42090,906235,OAKCLIFF RD @ 3417,,33.9046,-84.254462,0,,,,,1
42092,906209,OAKCLIFF RD @ OAKCLIFF INDUSTRIAL ST,0 OAKCLIFF RD & OAKCLIFF INDUSTRIAL ST,33.902764,-84.253336,,,,,,0
42094,906210,OAKCLIFF RD @ NORTHCREST RD,0 OAKCLIFF RD & NORTHCREST RD,33.901131,-84.250629,0,,,,,0
42096,906211,OAKCLIFF RD @ OAKCLIFF INDUSTRIAL CT,0 OAKCLIFF RD & OAKCLIFF INDUSTRIAL CT,33.903369,-84.247966,,,,,,0
42098,906212,OAKCLIFF RD @ PLEASANTDALE RD,0 OAKCLIFF RD & PLEASANTDALE RD,33.904523,-84.246577,0,,,,,0
42100,906236,PLEASANTDALE RD @ 4126,,33.902875,-84.244954,0,,,,,1
42102,600048,NEW PEACHTREE RD @ OAKCLIFF RD,0 NEW PEACHTREE & OAKCLIFF,33.911662,-84.265991,0,,,,,0
42106,906259,OAKCLIFF RD @ WINDSOR OAK DR,0 OAKCLIFF & WINDSOR OAK,33.910481,-84.259971,0,,,,,1
42108,906260,OAKCLIFF RD @ PIN OAK CIR,0 OAKCLIFF RD & PIN OAK CIR,33.906577,-84.254553,,,,,,0
42110,906266,OAKCLIFF RD @ 3420,,33.903964,-84.254043,,,,,,0
42112,906267,OAKCLIFF RD @ OAKCLIFF INDUSTRIAL ST,0 OAKCLIFF RD & OAKCLIFF INDUSTRIAL ST,33.902578,-84.253097,0,,,,,0
42114,906268,OAKCLIFF RD @ NORTHCREST RD,0 OAKCLIFF RD & NORTHCREST RD,33.901066,-84.250867,0,,,,,0
42116,906269,OAKCLIFF RD @ OAKCLIFF INDUSTRIAL CT,0 OAKCLIFF RD & OAKCLIFF INDUSTRIAL CT,33.903477,-84.247966,,,,,,0
42118,906274,OAKCLIFF RD @ PLEASANTDALE RD,0 OAKCLIFF RD & PLEASANTDALE RD,33.904295,-84.247112,0,,,,,0
42122,600044,NEW PEACHTREE RD @ LONGMIRE WAY,0 NEW PEACHTREE RD & LONGMIRE WAY,33.907452,-84.27363,0,,,,,0
42124,600042,NEW PEACHTREE RD @ 6190,6190 NEW PEACHTREE RD & LONGMIRE WAY,33.905622,-84.275936,0,,,,,1
42126,906270,PLEASANTDALE RD @ 4111,,33.902794,-84.244657,0,,,,,1
42130,906271,PEACHTREE INDUSTRIAL BLVD @ 6670,6670 GA-141 S & ACCESS RD S,33.92793,-84.272718,,,,,,0
42144,906272,PEACHTREE INDUSTRIAL BLVD @ 6750,0 PEACHTREE INDUSTRIAL BLVD & UNNAMED ST,33.928896,-84.27044,0,,,,,1
42166,905338,OAKCLIFF RD @ PIN OAK CIR,0 OAKCLIFF RD & PIN OAK CIR,33.91024,-84.259386,,,,,,0
42900,905508,DORAVILLE STATION,0 Unit @ & CENTRAL AVE,33.902424,-84.280467,,,,,,1
44002,905577,ROSWELL RD NE @ MIDVALE DR NE,0 ROSWELL RD NE & MIDVALE DR NE,33.872971,-84.38097,,,,,,1
44004,905578,ROSWELL RD NE @ WIEUCA RD NE,0 ROSWELL RD NE & WIEUCA RD NE,33.875271,-84.380612,,,,,,1
44006,905579,ROSWELL RD NE @ DILBECK PL NW,,33.877285,-84.379764,,,,,,1
44008,905627,ROSWELL RD NE @ WINDSOR PKWY NE,0 ROSWELL RD NE & WINDSOR PKY NE,33.879245,-84.379733,0,,,,,1
44014,905629,ROSWELL RD NE @ MYSTIC PL NE,0 ROSWELL & MYSTIC,33.882837,-84.379928,0,,,,,1
44018,905580,ROSWELL RD NE @ MIDVALE DR NE,0 ROSWELL RD NE & MIDVALE DR NE,33.872251,-84.381159,0,,,,,1
44020,905626,ROSWELL RD NE @ WIEUCA RD NE,6350 ROSWELL RD NE & WIEUCA RD NE,33.876251,-84.380348,0,,,,,1
44024,905812,ROSWELL RD NE @ WINDSOR PKWY NE,0 ROSWELL RD NE & WINDSOR PKY NE,33.879306,-84.379915,0,,,,,1
44028,905814,ROSWELL RD NE @ OSNER DR NE,0 ROSWELL RD NE & OSNER DR NE,33.895022,-84.381388,,,,,,1
44030,905743,ROSWELL RD NE @ MT PARAN RD NE,0 ROSWELL RD NE & MT PARAN RD NE,33.897528,-84.381554,0,,,,,1
44032,905744,ROSWELL RD NE @ MARYEANNA DR,0 ROSWELL & MARYEANNA,33.900075,-84.380517,0,,,,,1
44036,905746,ROSWELL RD NE @ MYSTIC PL NE,0 ROSWELL RD NE & MYSTIC PL NE,33.883138,-84.380128,0,,,,,0
44038,905815,ROSWELL RD NE @ MYSTIC DR,0 ROSWELL RD NE & MYSTIC DR NE,33.884418,-84.380749,,,,,,1
44042,905863,ROSWELL RD NE @ LONG ISLAND DR NE,0 ROSWELL RD NE & LONG ISLAND DR NE,33.887263,-84.381677,0,,,,,1
44045,905864,ROSWELL RD NE @ W BELLE ISLE RD NE,,33.889915,-84.381535,0,,,,,1
44046,905869,ROSWELL RD NE @ HARDEMAN RD,0 ROSWELL RD NE & HARDEMAN RD NE,33.8924,-84.38119,0,,,,,1
44058,905870,ROSWELL RD NE @ TOWNSHIP PKWY,,33.884946,-84.380978,0,,,,,0
44062,905871,ROSWELL RD NE @ LONG ISLAND DR NE,0 ROSWELL RD NE & LONG ISLAND DR NE,33.887039,-84.381622,,,,,,1
44064,905988,ROSWELL RD NE @ E BELLE ISLE RD NE,,33.890188,-84.381275,0,,,,,1
44066,905989,ROSWELL RD NE @ PARK AVE NE,0 ROSWELL RD NE & PARK AVE NE,33.892756,-84.381042,0,,,,,1
44074,906102,ROSWELL RD NE @ BEACHLAND DR NE,0 ROSWELL & BEACHLAND,33.89771,-84.38142,0,,,,,0
44078,905991,ROSWELL RD NE @ GREEN HILL RD NE,0 ROSWELL & GREEN HILL,33.90044,-84.38,0,,,,,1
45104,905587,PEACHTREE RD NE @ HERMANCE DR NE,0 PEACHTREE & HERMANCE,33.871537,-84.332355,,,,,,0
45106,905588,PEACHTREE RD @ LANIER DR,0 PEACHTREE & LANIER,33.873621,-84.33044,,,,,,0
45108,905471,PEACHTREE RD @ LANIER DR,0 PEACHTREE RD NE & LANIER DR NE,33.873942,-84.330221,,,,,,1
45110,905472,PEACHTREE RD @ HERMANCE DR,0 PEACHTREE RD NE & HERMANCE DR NE,33.871633,-84.332475,,,,,,1
46008,905707,NEW PEACHTREE RD @ HOOD AVE,0 NEW PEACHTREE RD & HOOD AVE,33.890597,-84.300709,0,,,,,1
46010,905708,JOHNSON FERRY RD @ JEFFERSON CIR S,JOHNSON FERRY RD NE & JEFFERSON CIR S,33.886892,-84.317056,,,,,,1
46014,905709,CHAMBLEE TUCKER @ PEACHTREE RD,5193 CHAMBLEE TUCKER RD & PEACHTREE RD,33.888311,-84.309185,0,,,,,1
46020,905825,JOHNSON FERRY RD @ KESWICK DR,0 JOHNSON FERRY & KESWICK,33.888409,-84.318524,,,,,,0
46022,905827,JOHNSON FERRY RD NE @ DURDEN DR NE,,33.890526,-84.320977,,,,,,1
46032,905951,PEACHTREE RD @ ASHFORD DUNWOODY RD,0 PEACHTREE & ASHFORD DUNWOODY,33.87526,-84.327836,0,,,,,0
46034,905952,PEACHTREE RD NE @ REDDING RD NE,0 PEACHTREE & REDDING,33.876495,-84.325732,0,,,,,1
46046,906067,PEACHTREE IND BLVD @ MILLER DR,0 PEACHTREE BLVD & MILLER DR,33.893062,-84.307494,0,,,,,1
46048,906068,PEACHTREE IND BLVD @ PIERCE DR,0 PEACHTREE INDUSTRIAL & PIERCE,33.89416,-84.306124,,,,,,1
46050,906069,PEACHTREE INDUSTRIAL BLVD @ CHAMBLEE DUNWOODY RD,0 PEACHTREE BLVD & CHAMBLEE DUNWOODY RD,33.89533,-84.304817,0,,,,,0
46052,905954,PEACHTREE INDUSTRIAL BLVD @ IVY LN,0 PEACHTREE BLVD & IVY LN,33.897379,-84.30273,0,,,,,1
46058,906003,PEACHTREE IND BLVD @ BROAD ST,0 PEACHTREE BLVD & BROAD ST,33.898587,-84.301811,0,,,,,1
46060,905247,PEACHTREE BLVD @ IVY LN,0 PEACHTREE BLVD & IVY LN,33.897724,-84.302691,0,,,,,0
46062,905361,PEACHTREE IND BLVD @ CHAMBLEE DUNWOODY,0 PEACHTREE BLVD & CHAMBLEE DUNWOODY RD,33.894971,-84.305485,0,,,,,0
46066,905363,PEACHTREE IND BLVD @ MILLER DR,0 PEACHTREE INDUSTRIAL & MILLER,33.89325,-84.307861,,,,,,0
46070,905248,PEACHTREE IND BLVD @ CLAIRMONT RD,0 PEACHTREE BLVD & CLAIRMONT RD NE,33.88847,-84.313653,0,,,,,1
46078,905249,PEACHTREE RD NE @ 4839,4829 PEACHTREE RD NE,33.881777,-84.319575,0,,,,,0
46082,905251,PEACHTREE RD @ ASHFORD DUNWOODY RD,0 PEACHTREE RD NE & ASHFORD DUNWOODY RD NE,33.876112,-84.326796,0,,,,,1
46118,905538,CHAMBLEE TUCKER RD @ W HOSPITAL AVE,0 CHAMBLEE TUCKER & HOSPITAL,33.885731,-84.294586,,,,,,1
46120,905539,CHAMBLEE TUCKER RD @ CATALINA DR,0 CHAMBLEE TUCKER RD & BURKE DR,33.885752,-84.297869,,,,,,1
46122,905608,CHAMBLEE TUCKER RD @ HOOD AVE,0 CHAMBLEE TUCKER & HOOD,33.88578,-84.30075,0,,,,,1
46126,905609,CHAMBLEE TUCKER RD @ WATKINS AVE,0 CHAMBLEE TUCKER & WATKINS,33.885777,-84.30336,,,,,,1
46128,905610,CHAMBLEE TUCKER RD @ NEW PEACHTREE RD,0 CHAMBLEE TUCKER & NEW PEACHTREE,33.885882,-84.306114,0,,,,,1
46132,905650,CHAMBLEE TUCKER RD @ FLIGHTWAY DR,0 CHAMBLEE TUCKER RD & FLIGHTWAY DR,33.885591,-84.297771,,,,,,0
46152,905842,NEW PEACHTREE RD @ HARDEE AVE,0 NEW PEACHTREE RD & HARDEE AVE,33.885983,-84.307833,0,,,,,1
46156,905725,NEW PEACHTREE RD @ HARDEE AVE,0 NEW PEACHTREE RD & HARDEE AVE,33.885736,-84.308323,,,,,,0
46180,905895,NEW PEACHTREE RD @ HOOD AVE,0 NEW PEACHTREE & HOOD,33.89017,-84.301059,0,,,,,0
46186,906085,CHAMBLEE DUNWOODY RD @ BLACKBURN WAY,0 CHAMBLEE DUNWOODY RD & BLACKBURN WAY,33.891784,-84.296974,0,,,,,1
46201,906086,JOHNSON FERRY RD NE @ DURDEN DR NE,0 JOHNSON FERRY RD NE & DURDEN DR NE,33.890517,-84.321205,,,,,,0
46202,905191,PEACHTREE INDUSTRIAL BLVD @ MCGAW DR,0 PEACHTREE BLVD & MCGAW DR,33.887608,-84.314214,0,,,,,0
46204,905193,PEACHTREE INDUSTRIAL BLVD @ CHAMBLEE TUCKER RD,0 PEACHTREE INDUSTRIAL BLVD & CHAMBLEE TUCKER RD,33.890095,-84.311437,0,,,,,1
46206,906019,CHAMBLEE TUCKER RD @ 5193,5193 CHAMBLEE TUCKER RD & BRIARCREST TRL NE,33.888708,-84.309695,0,,,,,1
46216,905314,CLAIRMONT RD @ TOBEY RD,0 GA-155 & N TOBEY RD NE <NULLS>,33.872205,-84.30936,,,,,,1
46218,905384,CLAIRMONT RD @ AIRPORT RD,0 CLAIRMONT RD NE & AIRPORT RD,33.876358,-84.309403,,,,,,0
46220,905385,CLAIRMONT RD @ DYER CIR,0 CLAIRMONT RD NE & GA-155,33.880609,-84.309424,,,,,,1
46222,905386,CLAIRMONT RD NE @ LAWSON WAY,0 CLAIRMONT RD NE & LAWSON WAY,33.882005,-84.309424,,,,,,1
46226,905315,CLAIRMONT RD @ NEW PEACHTREE RD,0 CLAIRMONT RD NE & NEW PEACHTREE RD,33.885218,-84.310055,,,,,,1
46236,905317,CLAIRMONT RD NE @ LAWSON DR,0 CLAIRMONT RD NE & LAWSON DR,33.882131,-84.30957,0,,,,,1
46238,905318,CLAIRMONT RD NE @ 5TH ST,0 CLAIRMONT RD NE & 5TH ST,33.880188,-84.309579,0,,,,,1
46240,906120,CLAIRMONT RD NE @ 8TH ST,0 CLAIRMONT RD NE & 8TH ST,33.876833,-84.309543,0,,,,,1
46242,906121,CLAIRMONT RD NE @ 9TH ST,0 CLAIRMONT RD NE & 9TH ST,33.87557,-84.309565,0,,,,,1
46262,906122,PEACHTREE BLVD @ PEACHTREE RD,0 PEACHTREE BLVD & PEACHTREE RD,33.88327,-84.31702,0,,,,,1
46263,906123,PEACHTREE IND BLVD @ JOHNSON FERRY,0 PEACHTREE BLVD & JOHNSON FERRY RD NE,33.886485,-84.314883,0,,,,,0
46264,905319,PEACHTREE RD NE @ 4829,4738 PEACHTREE,33.880898,-84.320503,,,,,,1
46273,906155,CHAMBLEE TUCKER RD @ W HOSPITAL AVE,0 CHAMBLEE TUCKER RD & W HOSPITAL AVE,33.88555,-84.2964,0,,,,,0
46276,906181,PEACHTREE RD @ CHAMBLEE DUNWOODY WAY,0 PEACHTREE & CHAMBLEE DUNWOODY,33.89174,-84.30131,0,,,,,1
46308,906214,JOHNSON FERRY RD NE @ ASHFORD DUNWOODY RD NE,,33.891993,-84.325757,,,,,,1
46310,906215,CLAIRMONT RD NE @ NEW PEACHTREE RD,0 CLAIRMONT RD NE & NEW PEACHTREE RD,33.88466,-84.30993,0,,,,,1
46328,906242,CHAMBLEE DUNWOODY RD @ BLACKBURN WAY,0 CHAMBLEE DUNWOODY RD & BLACKBURN WAY,33.891847,-84.296832,,,,,,1
46334,905395,JOHNSON FERRY RD NE @ GATEBURY CIR,0 JOHNSON FERRY RD NE & GATEBURY CIR,33.887661,-84.318337,0,,,,,0
46336,905509,PEACHTREE INDUSTRIAL BLVD @ JOHNSON FERRY RD,0 PEACHTREE INDUSTRIAL & JOHNSON FERRY,33.88506,-84.31616,0,,,,,1
46509,905398,PEACHTREE IND BLVD @ MCGAW DR,0 PEACHTREE BLVD & MCGAW DR,33.886981,-84.314791,0,,,,,1
46900,905514,CHAMBLEE STATION - EAST LOOP,0 PEACHTREE  RD & MALONE  DR,33.887675,-84.305039,,,,,,1
46901,905515,CHAMBLEE STATION - WEST LOOP,0 PEACHTREE  RD & MALONE  DR,33.888495,-84.305504,,,,,,1
47002,905399,NEW PEACHTREE RD @ 5918,0 NEW PEACHTREE & SHALLOWFORD,33.90044,-84.28168,0,,,,,1
47064,905747,BUFORD HWY @ WOODSIDE WAY,0 BUFORD & WOODSIDE,33.875049,-84.293972,0,,,,,0
47065,905748,BUFORD HWY NE @ SHALLOWFORD TER,0 BUFORD HWY NE & SHALLOWFORD TER,33.876491,-84.293509,0,,,,,0
47069,905631,BUFORD HWY NE @ CHAMBLEE TUCKER RD,0 BUFORD HWY NE & CHAMBLEE TUCKER RD,33.885456,-84.288225,0,,,,,1
47080,905632,BUFORD HWY NE @ SHALLOWFORD TER,0 BUFORD & SHALLOWFORD,33.8772,-84.292779,0,,,,,1
47082,905633,BUFORD HWY NE @ 4725,4707 BUFORD,33.879021,-84.291789,0,,,,,1
47084,905634,BUFORD HWY NE @ BEVERLY HILLS DR,0 BUFORD & BEVERLY HILLS,33.881785,-84.290244,0,,,,,1
47092,905865,BUFORD HWY NE @ 4995,,33.887738,-84.286971,0,,,,,1
47100,905873,BUFORD HWY NE @ MCCLAVE DR,0 BUFORD HWY NE & MCCLAVE DR,33.891941,-84.284968,0,,,,,1
47106,905876,BUFORD HWY NE @ 5200,,33.894243,-84.283694,0,,,,,1
47108,905994,BUFORD HWY NE @ 5280,,33.896576,-84.282039,0,,,,,1
47112,905996,BUFORD HWY NE @ OAKMONT AVE,0 BUFORD HWY NE & OAKMONT AVE,33.898429,-84.279823,0,,,,,1
47114,905997,BUFORD HWY @ LONGMIRE,0 BUFORD HWY NE & LONGMIRE WAY,33.905387,-84.271187,,,,,,0
47116,905877,BUFORD HWY NE @ JESSE NORMAN WAY,0 BUFORD HWY NE & JESSE NORMAN WAY,33.901407,-84.275993,,,,,,1
47123,906112,PEACHTREE RD @ AMERICAN INDUSTRIAL W,0 PEACHTREE & AMERICAN INDUSTRIAL,33.892035,-84.300876,,,,,,0
47125,906114,PEACHTREE RD @ BROAD ST,0 PEACHTREE & BROAD,33.894044,-84.298702,,,,,,1
47128,906109,N PEACHTREE RD @ PEACHTREE RD,0 N PEACHTREE RD & PEACHTREE RD,33.896768,-84.293857,0,,,,,1
47130,906110,N PEACHTREE RD @ CLEMSON DR,0 PEACHTREE & CLEMSON,33.89896,-84.29376,0,,,,,0
47131,906115,PEACHTREE RD @ BROAD ST,0 PEACHTREE & BROAD,33.89387,-84.299407,,,,,,1
47132,906116,N PEACHTREE RD @ PEACHTREE RD,0 PEACHTREE & PEACHTREE,33.896404,-84.294098,,,,,,0
47133,906117,PEACHTREE RD @ BROAD ST,0 PEACHTREE & BROAD,33.894593,-84.297396,,,,,,1
47134,905163,SHALLOWFORD RD NE @ WOODSIDE WAY,0 SHALLOWFORD RD NE & WOODSIDE WAY,33.873919,-84.290012,,,,,,1
47135,905231,SHALLOWFORD RD NE @ SHALLOWFORD PL,0 SHALLOWFORD RD NE & SHALLOWFORD PL,33.878742,-84.287179,,,,,,0
47136,905232,SHALLOWFORD RD NE @ BEVERLY HILLS DR,0 SHALLOWFORD RD NE & BEVERLY HILLS DR,33.880004,-84.286895,,,,,,0
47137,905233,SHALLOWFORD RD NE @ LAVENTURE DR,0 SHALLOWFORD & LA VENTURE,33.883345,-84.284812,,,,,,0
47139,905234,SHALLOWFORD RD NE @ ADDISON DR,0 SHALLOWFORD & ADDISON,33.886088,-84.284942,0,,,,,1
47140,905349,CHAMBLEE DUNWOODY RD @ BUFORD HWY NE,0 CHAMBLEE DUNWOODY RD & BUFORD HWY NE,33.889087,-84.286194,,,,,,0
47144,905356,CHAMBLEE DUNWOODY RD @ CLAIRVIEW DR,0 CHAMBLEE DUNWOODY RD & CLAIRVIEW DR,33.890538,-84.289155,,,,,,1
47148,905350,CHAMBLEE DUNWOODY RD @ CUMBERLAND DR,0 CHAMBLEE DUNWOODY RD & CUMBERLAND DR,33.89172,-84.292226,,,,,,1
47150,905351,CHAMBLEE DUNWOODY RD @ W HOSPITAL AVE,0 CHAMBLEE DUNWOODY RD & W HOSPITAL AVE,33.891864,-84.294578,,,,,,1
47152,905352,CHAMBLEE TUCKER RD @ BARKSIDE CT,0 CHAMBLEE TUCKER RD & BARKSIDE CT,33.880539,-84.263179,,,,,,0
47158,905353,CHAMBLEE TUCKER RD @ DEKALB TECHNOLOGY PKWY,0 CHAMBLEE TUCKER RD & DEKALB TECHNOLOGY PKY,33.880196,-84.274536,0,,,,,1
47162,905403,CHAMBLEE TUCKER RD @ HOLIDAY PL,0 CHAMBLEE TUCKER RD & HOLIDAY PL,33.88244,-84.27913,0,,,,,1
47164,905404,CHAMBLEE TUCKER RD @ BAGLEY DR,0 CHAMBLEE TUCKER & BAGLEY,33.883282,-84.281937,,,,,,1
47166,905405,CHAMBLEE TUCKER RD @ SHALLOWFORD RD,0 CHAMBLEE TUCKER & SHALLOWFORD,33.885647,-84.284843,,,,,,1
47168,905406,CHAMBLEE TUCKER RD @ CARROLL CIR,0 CHAMBLEE TUCKER & CARROLL,33.88575,-84.28986,,,,,,0
47170,905475,CHAMBLEE TUCKER RD @ CUMBERLAND DR,0 CHAMBLEE TUCKER & CUMBERLAND,33.885757,-84.29155,,,,,,1
47174,905522,CHAMBLEE TUCKER RD @ ALTON RD,0 CHAMBLEE TUCKER & ALTON,33.880747,-84.262274,,,,,,0
47180,905474,CHAMBLEE TUCKER RD @  DEKALB TECHNOLOGY PKWY,0 CHAMBLEE TUCKER RD & DRESDEN DR NE,33.88055,-84.27514,0,,,,,1
47184,905590,CHAMBLEE TUCKER RD @ HOLIDAY PL,0 CHAMBLEE TUCKER RD & HOLIDAY PL,33.882409,-84.279576,,,,,,1
47186,905591,CHAMBLEE TUCKER RD @ SHALLOWFORD RD,0 CHAMBLEE TUCKER RD & SHALLOWFORD RD,33.885606,-84.28515,,,,,,1
47192,905592,CHAMBLEE TUCKER RD @ 2331,0 CHAMBLEE TUCKER RD & W HOSPITAL AVE,33.88553,-84.294,0,,,,,0
47204,905594,CHAMBLEE DUNWOODY RD @ W HOSPITAL AVE,0 CHAMBLEE DUNWOODY RD & W HOSPITAL AVE,33.891748,-84.29424,,,,,,1
47206,905595,CHAMBLEE DUNWOODY RD @ CUMBERLAND DR,0 CHAMBLEE DUNWOODY RD & CUMBERLAND DR,33.891622,-84.292226,,,,,,1
47208,905635,CHAMBLEE DUNWOODY RD @ BUFORD HWY NE,0 CHAMBLEE DUNWOODY RD & BUFORD HWY NE,33.889356,-84.286934,,,,,,1
47210,905640,SHALLOWFORD RD NE @ CHAMBLEE TUCKER RD,,33.886187,-84.285106,,,,,,1
47212,905641,SHALLOWFORD RD NE @ LA VENTURE DR,0 SHALLOWFORD RD NE & LAVENTURE DR,33.883744,-84.284933,,,,,,0
47214,905828,SHALLOWFORD RD NE @ ORTEGA WAY,0 SHALLOWFORD RD NE & ORTEGA WAY,33.881498,-84.286012,,,,,,0
47216,905711,SHALLOWFORD RD NE @ SHALLOWFORD PL,0 SHALLOWFORD RD NE & SHALLOWFORD PL,33.878966,-84.287244,,,,,,0
47218,905755,SHALLOWFORD RD NE @ SHALLOWFORD TER,0 SHALLOWFORD RD NE & SHALLOWFORD TER,33.876568,-84.288465,,,,,,1
47220,905756,SHALLOWFORD RD NE @ WOODSIDE WAY,0 SHALLOWFORD RD NE & WOODSIDE WAY,33.87381,-84.290196,0,,,,,1
47228,905829,BUFORD HWY NE @ BEVERLY HILLS DR,0 BUFORD HWY NE & BEVERLY HILLS DR,33.882277,-84.290327,0,,,,,1
47230,905830,BUFORD HWY NE @ 4770,,33.878277,-84.292582,0,,,,,1
47246,905886,I-85 ACCESS RD NORTH (N.E. EXPY) @ 3355,3355 NORTHEAST,33.874607,-84.275673,,,,,,0
47248,905879,I-85 ACCESS RD NORTH (N.E. EXPY) @ WOODCOCK BLVD,0 NORTHEAST & WOODCOCK,33.875918,-84.274582,,,,,,0
47266,907494,SHALLOWFORD RD @ NEW PEACHTREE,0 SHALLOWFORD RD NE & NEW PEACHTREE RD,33.898215,-84.283455,0,,,,,1
47267,906004,NEW PEACHTREE RD @ 5935,5935 NEW PEACHTREE RD & SHALLOWFORD RD NE,33.90045,-84.28143,0,,,,,1
47268,906073,BUFORD HWY NE @ CHAMBLEE DUNWOODY RD,0 BUFORD HWY NE & CHAMBLEE DUNWOODY RD,33.889456,-84.286327,0,,,,,1
47292,905185,CHAMBLEE TUCKER RD @ PRESIDENTIAL PK,0 CHAMBLEE TUCKER & PRESIDENTIAL,33.877807,-84.270681,,,,,,1
47293,905186,CHAMBLEE TUCKER RD @ STANTONDALE DR,0 CHAMBLEE TUCKER & STANTONDALE,33.880113,-84.265477,,,,,,0
47298,905301,CHAMBLEE TUCKER RD @ PRESIDENTIAL PKWY,0 CHAMBLEE TUCKER & PRESUDENTIAL,33.877745,-84.271047,,,,,,1
47300,905302,CHAMBLEE TUCKER RD @ CUMBERLAND DR,0 CHAMBLEE TUCKER RD & CUMBERLAND DR,33.88558,-84.29108,0,,,,,0
47310,905369,CHAMBLEE TUCKER RD @ STANTONDALE DR,0 CHAMBLEE TUCKER RD & STANTONDALE DR,33.879869,-84.265684,,,,,,1
47312,905370,CHAMBLEE TUCKER RD @ EMBRY CIR,0 CHAMBLEE TUCKER RD & EMBRY CIR,33.88338,-84.2584,0,,,,,1
47320,907477,SHALLOWFORD RD @ BUFORD HWY,0 SHALLOWFORD RD NE & BUFORD HWY NE,33.889919,-84.28579,0,,,,,0
47322,907478,SHALLOWFORD RD @ 3552,3552 SHALLOWFORD RD NE,33.892604,-84.28641,0,,,,,0
47326,905417,PEACHTREE RD @ INGERSOLL RAND DR,0 PEACHTREE & INGERSOLL RAND,33.895341,-84.295714,0,,,,,1
47328,905418,SHALLOWFORD RD NE @ WHISPERING HILLS DR,0 SHALLOWFORD & WHISPERING HILLS,33.87631,-84.28849,0,,,,,1
47330,905419,SHALLOWFORD RD NE @ ORTEGA WAY,0 SHALLOWFORD & ORTEGA,33.881422,-84.285877,,,,,,0
47338,905425,SHALLOWFORD RD NE @ BEVERLY HILLS DR,0 SHALLOWFORD RD NE & BEVERLY HILLS DR,33.880111,-84.286928,,,,,,0
47340,905540,BUFORD HWY @ CHAMBLEE TUCKER RD,0 BUFORD HWY NE & CHAMBLEE TUCKER RD,33.884653,-84.289001,0,,,,,1
47342,905541,CHAMBLEE TUCKER RD @ BUFORD HWY,,33.885861,-84.287856,,,,,,1
47346,905543,CHAMBLEE TUCKER RD @ ASCOT CT,0 CHAMBLEE TUCKER RD & ASCOT CT,33.881799,-84.277388,,,,,,1
47348,905651,CHAMBLEE TUCKER RD @ ASCOT CT,0 CHAMBLEE TUCKER RD & ASCOT CT,33.881772,-84.277573,,,,,,1
48002,905652,HENDERSON MILL RD @ ASHWOOD LN,0 HENDERSON MILL RD & ASHWOOD LN,33.879027,-84.248317,0,,,,,1
48003,905653,HENDERSON MILL RD @ CHAMBLEE TUCKER RD,0 HENDERSON MILL RD NE & CHAMBLEE TUCKER RD,33.881978,-84.24545,,,,,,0
48004,905654,HENDERSON MILL RD @ SHABROMAT WAY,0 HENDERSON MILL RD & SHABROMAT WAY,33.877597,-84.251214,,,,,,0
48008,905544,CHAMBLEE TUCKER RD @ NORTHCREST RD,0 CHAMBLEE TUCKER RD & NORTHCREST RD,33.885533,-84.247842,,,,,,0
48026,905896,CHAMBLEE TUCKER RD @ NORTHCREST RD,0 CHAMBLEE TUCKER RD & NORTHCREST RD,33.885417,-84.247712,,,,,,0
48034,905777,CHAMBLEE TUCKER RD @ 3350,,33.885213,-84.256218,0,,,,,1
48040,905778,CHAMBLEE TUCKER RD @ HENDERSON MILL,0 CHAMBLEE TUCKER RD & HENDERSON MILL RD NE,33.883043,-84.244915,,,,,,1
48042,905779,HENDERSON MILL RD @ CHAMBLEE TUCKER,0 HENDERSON MILL & CHAMBLEE TUCKER,33.882122,-84.245524,0,,,,,1
48044,905898,HENDERSON MILL RD @ ASHWOOD LN,0 HENDERSON MILL & ASHWOOD,33.879612,-84.24762,,,,,,1
48046,905899,HENDERSON MILL @ 3208,,33.87897,-84.24885,0,,,,,0
48048,905900,HENDERSON MILL RD @ SHABROMAT WAY,0 HENDERSON MILL & SHABROMAT,33.87774,-84.25122,0,,,,,1
48050,905901,HENDERSON MILL RD @ EVANS RD,0 HENDERSON MILL & EVANS,33.8719,-84.25096,0,,,,,0
48052,905780,FLOWERS RD S @ MERCER UNIVERSITY DR,0 FLOWERS RD S & MERCER UNIVERSITY DR,33.875014,-84.256096,0,,,,,0
48054,905781,FLOWERS RD @ MERCER UNIVERSITY DR,0 FLOWERS & MERCER UNIVERSITY,33.874992,-84.255883,0,,,,,0
48064,905782,PLEASANTDALE RD @ 4000,,33.899333,-84.243613,0,,,,,1
48066,905783,PLEASANTDALE RD @ 3930,,33.897444,-84.242843,,,,,,1
48068,906021,PLEASANTDALE RD @ 3930,,33.8955,-84.24067,0,,,,,0
48070,905194,PLEASANTDALE RD @ 3810,,33.895101,-84.239468,0,,,,,1
48072,905195,PLEASANTDALE RD @ 3772,,33.89484,-84.23767,0,,,,,0
48073,905196,PLEASANTDALE RD @ 3754,,33.89466,-84.23679,0,,,,,1
48074,905197,PLEASANTDALE RD @ 3722,,33.894007,-84.235653,0,,,,,0
48075,906022,TUCKER NORCROSS RD @ BRITT RD,0 TUCKER NORCROSS RD & BRITT RD,33.882736,-84.219653,0,,,,,1
48076,906023,CHAMBLEE TUCKER RD @ TUCKER NORCROSS RD,0 CHAMBLEE TUCKER RD & TUCKER NORCROSS RD,33.880946,-84.219111,,,,,,1
48078,906024,CHAMBLEE TUCKER RD @ GLADNEY DR,0 CHAMBLEE TUCKER RD & GLADNEY DR,33.878386,-84.218395,,,,,,1
48080,906025,CHAMBLEE TUCKER RD @ MENLO DR,0 CHAMBLEE TUCKER RD & MENLO DR,33.875378,-84.218084,,,,,,1
48081,905198,CHAMBLEE TUCKER RD @ GLADNEY DR,0 CHAMBLEE TUCKER RD & GLADNEY DR,33.878529,-84.218297,,,,,,1
48082,905199,CHAMBLEE TUCKER RD @ MENLO DR,0 CHAMBLEE TUCKER RD & MENLO DR,33.875298,-84.218008,,,,,,0
48084,905200,CHAMBLEE TUCKER RD @ WEBB RD,0 CHAMBLEE TUCKER & WEBB,33.872971,-84.217304,0,,,,,0
48086,905201,PLEASANTDALE RD @ 4025,,33.898941,-84.24318,0,,,,,1
48088,906026,PLEASANTDALE RD @ 4021,,33.89691,-84.24233,0,,,,,0
48090,906027,PLEASANTDALE RD @ 3845,,33.895815,-84.241003,0,,,,,1
48094,905320,PLEASANTDALE RD @ 3772,,33.89508,-84.237768,0,,,,,0
48096,905321,PLEASANTDALE RD @ 3722,,33.894144,-84.235455,0,,,,,0
48098,905322,PLEASANTDALE RD @ VALLEY BLUFF WAY,0 PLEASANTDALE RD & VALLEY BLUFF WAY,33.89244,-84.23129,0,,,,,1
48100,906124,PLEASANTDALE RD @ VALLEY BLUFF WAY,0 PLEASANTDALE RD & VALLEY BLUFF WAY,33.89208,-84.22984,0,,,,,0
48104,906126,PLEASANTDALE RD @ WASHINGTON WAY,3515 PLEASANTDALE RD & WASHINGTON WAY,33.89192,-84.22878,0,,,,,1
48108,905323,PLEASANTDALE RD @ PLEASANTDALE PKWY,0 PLEASANTDALE RD & PLEASANTDALE PKY,33.890503,-84.227701,,,,,,1
48110,905324,PLEASANTDALE RD @ PLEASANTDALE PKWY,0 PLEASANTDALE RD & PLEASANTDALE PKY,33.89041,-84.22745,0,,,,,1
48112,905325,PLEASANTDALE RD @ SPRING HARBOR LN,0 PLEASANTDALE RD & SPRING HARBOR LN,33.888801,-84.22681,,,,,,0
48114,905326,PLEASANTDALE RD @ SPRING HARBOUR DR,0 PLEASANTDALE RD & SPRING HARBOR LN,33.889087,-84.22682,0,,,,,0
48116,906128,PLEASANTDALE RD @ PLEASANT SHADE DR,0 PLEASANTDALE RD & PLEASANT SHADE DR,33.887216,-84.225364,,,,,,1
48118,906129,PLEASANTDALE RD @ PLEASANT SHADE DR,0 PLEASANTDALE RD & PLEASANT SHADE DR,33.88712,-84.225057,0,,,,,0
48120,906130,PLEASANTDALE RD @ SHADOW WALK,0 PLEASANTDALE RD & SHADOW WALK LN,33.884949,-84.222252,,,,,,1
48124,905371,PLEASANTDALE RD @ TUCKER NORCROSS RD,0 PLEASANTDALE RD & TUCKER NORCROSS RD,33.884691,-84.221218,0,,,,,1
48126,906160,PLEASANTDALE RD @ TUCKER NORCROSS RD,0 PLEASANTDALE RD & TUCKER NORCROSS RD,33.884104,-84.22069,0,,,,,1
48127,906161,TUCKER NORCROSS RD @ BRITT RD,,33.882515,-84.219854,0,,,,,1
48128,906162,PLEASANTDALE RD @ VALLEY BLUFF WAY,0 PLEASANTDALE RD & VALLEY BLUFF WAY,33.89264,-84.23112,0,,,,,1
48132,906163,MERCER UNIVERSITY DR @ HENDERSON MILL RD,0 MERCER UNIVERSITY DR & HENDERSON MILL RD,33.875262,-84.25334,0,,,,,1
48134,906185,HENDERSON MILL RD @ MERCER UNIVERSITY DR,0 HENDERSON MILL RD & MERCER UNIVERSITY DR,33.875217,-84.252687,,,,,,0
48138,906186,CHAMBLEE TUCKER RD @ N EMBRY CIR,0 CHAMBLEE TUCKER & EMBRY,33.88273,-84.26115,0,,,,,1
48140,906187,CHAMBLEE TUCKER RD @ EMBRY CIR,0 CHAMBLEE TUCKER & EMBRY,33.883383,-84.259645,,,,,,0
48142,906188,CHAMBLEE TUCKER RD @ MERCER UNIVERSI,0 CHAMBLEE TUCKER RD & MERCER UNIVERSITY DR,33.87882,-84.26813,0,,,,,0
48144,906164,CHAMBLEE TUCKER RD @ BUCKEYE RD,0 CHAMBLEE TUCKER RD & BUCKEYE RD,33.884537,-84.256515,0,,,,,1
48146,906165,FLOWERS RD S @ UNIVERSITY CIR W,,33.870373,-84.263611,0,,,,,0
48150,906167,CHAMBLEE TUCKER RD @ BUCKEYE RD,0 CHAMBLEE TUCKER & BUCKEYE,33.88443,-84.257427,,,,,,0
48151,906168,CHAMBLEE TUCKER RD @ STRATFORD ARMS,0 CHAMBLEE TUCKER RD & STRATFORD ARMS DR,33.883404,-84.282239,0,,,,,1
48152,906189,CHAMBLEE TUCKER RD @ MERCER UNIVERSI,0 CHAMBLEE TUCKER & MERCER UNIVERSITY,33.878604,-84.268809,,,,,,1
48154,906190,CHAMBLEE TUCKER RD @ STANTONDALE DR,0 CHAMBLEE TUCKER & STANTONDALE,33.879523,-84.267008,,,,,,1
48160,906191,HENDERSON MILL RD @ BOLERO DR,0 HENDERSON MILL & BOLERO,33.86585,-84.250879,,,,,,1
48162,906243,CHAMBLEE TUCKER RD @ STONECREST CT,0 CHAMBLEE TUCKER RD & STONECREST CT,33.88547,-84.25015,0,,,,,1
48164,906244,HENDERSON MILL RD @ MERCER UNIVERSIT,0 HENDERSON MILL & MERCER UNIVERSITY,33.87544,-84.252801,0,,,,,1
48170,906245,CHAMBLEE TUCKER RD @ 3365,,33.88539,-84.255195,0,,,,,1
48190,906223,CHAMBLEE TUCKER RD @ HENDERSON MILL,0 CHAMBLEE TUCKER & HENDERSON MILL,33.883618,-84.245535,0,,,,,0
48192,906246,PLEASANTDALE RD @ 3637,,33.89329,-84.23383,0,,,,,0
48194,906247,PLEASANTDALE RD @ 3680,,33.892951,-84.233284,0,,,,,0
48196,906248,CHAMBLEE TUCKER RD @ FONTANA CT,0 CHAMBLEE TUCKER & FONTANA,33.874192,-84.217959,,,,,,1
48198,906249,CHAMBLEE TUCKER RD @ FONTANA CT,0 CHAMBLEE TUCKER RD & FONTANA CT,33.874098,-84.217813,,,,,,0
49002,906225,LAWRENCEVILLE HWY @ OLD NORCROSS RD,0 LAWRENCEVILLE HWY & OLD NORCROSS RD,33.85698,-84.207218,0,,,,,1
49004,906226,LAWRENCEVILLE HWY @ OLD NORCROSS RD,0 LAWRENCEVILLE & OLD NORCROSS,33.857144,-84.207493,0,,,,,0
49006,906227,LAWRENCEVILLE HWY @ COFER CIR,0 LAWRENCEVILLE & COFER,33.858692,-84.20344,0,,,,,1
49007,906250,LAWRENCEVILLE HWY @ 4375,,33.85768,-84.205448,0,,,,,1
49008,906098,LAWRENCEVILLE HWY @ N ROYAL ATLANTA DR,,33.86054,-84.200588,,,,,,1
49010,905275,N ROYAL ATLANTA DR @ LAWRENCEVILLE HWY,0 N ROYAL ATLANTA DR & LAWRENCEVILLE HWY,33.8602,-84.200077,,,,,,0
49012,905276,N ROYAL ATLANTA DR @ TUCKERSTONE PKWY,0 ROYAL ATLANTA & TUCKERSTONE,33.859344,-84.199013,,,,,,1
49014,905277,N ROYAL ATLANTA DR @ 4667,,33.85956,-84.196524,0,,,,,0
49016,905278,N ROYAL ATLANTA DR @ 4707,,33.859303,-84.194489,,,,,,0
49018,906099,MOUNTAIN INDUSTRIAL BLVD @ TUCKERSTONE PKWY,0 MOUNTAIN INDUSTRIAL & TUCKERSTONE,33.857063,-84.198334,0,,,,,0
49020,906100,MOUNTAIN INDUSTRIAL BLVD @ 2530,,33.857342,-84.195564,0,,,,,0
49022,906101,MOUNTAIN INDUSTRIAL BLVD @ 2550,2558 MOUNTAIN INDUSTRIAL,33.857415,-84.193777,0,,,,,0
49028,905207,N ROYAL ATLANTA DR @ MOUNTAIN INDUSTRIAL BLVD,0 N ROYAL ATLANTA DR & MOUNTAIN INDUSTRIAL BLVD,33.859215,-84.188316,0,,,,,0
49030,905209,N ROYAL ATLANTA DR @ 4823,,33.859287,-84.191254,,,,,,1
49032,905400,MOUNTAIN INDUSTRIAL BLVD @ GRANITE DR,0 MOUNTAIN INDUSTRIAL BLVD & GRANITE DR,33.844955,-84.200801,0,,,,,1
49034,905401,MOUNTAIN INDUSTRIAL BLVD @ 2145,2145 N MOUNTAIN INDUSTRIAL BLVD NE,33.847103,-84.200805,0,,,,,1
49036,905445,HUGH HOWELL RD @ MOUNTAIN IND BLVD,0 N HUGH HOWELL RD NE & MTN IND BLVD,33.849136,-84.201484,,,,,,0
49038,905516,HUGH HOWELL RD @ TUCKER IND RD,0 HUGH HOWELL RD & TUCKER INDUSTRIAL RD,33.849132,-84.203186,,,,,,0
49040,905517,HUGH HOWELL RD @ FULLER WAY,,33.850191,-84.206461,,,,,,0
50004,905447,NORTHSIDE PKWY NW @ 3419,0 NORTHSIDE & PACES FERRY,33.847548,-84.429273,0,,,,,1
50011,905521,HOWELL MILL RD @ 3193,,33.841736,-84.427569,0,,,,,1
50021,905682,NORTHSIDE PKWY NW @ 3487,3487 NORTHSIDE PKY NW,33.850193,-84.430477,0,,,,,0
50022,905683,NORTHSIDE PKWY NW @ 3487,,33.850212,-84.430214,0,,,,,0
50024,905684,NORTHSIDE PKWY NW @ 3330,0 NORTHSIDE PKY NW & W PACES FERRY RD NW,33.847368,-84.429376,0,,,,,1
50028,905753,OLD MILTON PKWY @ HAYNES BRIDGE RD,OLD MILTON PKY & HAYNES BRIDGE RD,34.070858,-84.292085,0,,,,,1
51002,905927,ROSWELL RD NE @ POWERS FERRY RD NW,,33.855554,-84.382579,0,,,,,1
51058,905998,PEELER RD @ VILLAGE MILL RD,0 PEELER RD & VILLAGE MILL RD,33.931574,-84.309588,,,,,,1
51066,906000,ROSWELL RD NE @ IVY PKWY NE,0 ROSWELL & IVY,33.858301,-84.381075,0,,,,,1
51068,906001,ROSWELL RD NE @ IVY PKWY NE,ROSWELL RD NE & IVY PKY NE,33.857882,-84.381481,0,,,,,1
51069,905928,PIEDMONT RD NE @ HABERSHAM RD NE,0 PIEDMONT RD NE & HABERSHAM RD NE,33.853317,-84.381663,0,,,,,1
52002,905289,PIEDMONT RD NE @ TOWER PLACE DR,PIEDMONT RD NE & TOWER PLACE DR NE,33.846358,-84.372646,,,,,,1
52008,905172,PIEDMONT RD NE @ 3525,,33.849936,-84.37747,,,,,,1
52010,905523,PIEDMONT RD NE @ 3565,,33.85092,-84.378984,,,,,,0
52012,905524,PIEDMONT RD NE @ HABERSHAM RD NE,0 PIEDMONT RD NE & HABERSHAM RD NE,33.852924,-84.381053,,,,,,1
52016,905408,PIEDMONT RD NE @ 3500,,33.849614,-84.377089,,,,,,1
52020,905409,PIEDMONT RD NE @ CARSON LN NE,0 PIEDMONT RD NE & CARSON LN NE,33.848452,-84.374182,,,,,,1
52022,905410,PIEDMONT RD NE @ TOWER PLACE DR NE,3360 PIEDMONT RD NE & TOWER PLACE DR NE,33.84651,-84.372831,,,,,,1
52025,905526,PIEDMONT RD NE @ PEACHTREE RD NE,0 PIEDMONT RD NE & PEACHTREE RD NE,33.844399,-84.371807,,,,,,1
52028,905528,ROSWELL RD NE @ SHELDON DR NE,0 ROSWELL RD NE & SHELDON DR NE,33.860558,-84.380416,,,,,,1
52030,905411,ROSWELL RD NE @ LAND O LAKES DR NE,0 ROSWELL RD NE & LAND O LAKES DR NE,33.862831,-84.380189,,,,,,1
52032,905412,ROSWELL RD NE @ LAKEMOORE DR NE,0 ROSWELL RD NE & LAKEMOORE DR NE,33.865024,-84.380746,,,,,,1
52034,905413,ROSWELL RD NE @ CHASTAIN DR NE,,33.867548,-84.381031,,,,,,1
52038,905529,ROSWELL RD NE @ RICKENBACKER DR NE,0 ROSWELL RD NE & RICKENBACKER DR NE,33.870188,-84.380989,,,,,,1
52058,905760,PIEDMONT RD NE @ 3558,,33.851152,-84.379376,,,,,,1
52064,905644,ROSWELL RD NE @ RICKENBACKER DR NE,0 ROSWELL RD NE & RICKENBACKER DR NE,33.870358,-84.381109,,,,,,1
52068,905646,ROSWELL RD NE @ LE BRUN RD NE,0 ROSWELL RD NE & LE BRUN RD NE,33.861167,-84.38045,,,,,,0
52070,905647,ROSWELL RD NE @ LAUREL FOREST CIR,0 ROSWELL RD NE & LAUREL FOREST CIR NE,33.862509,-84.380276,,,,,,0
52072,905762,ROSWELL RD NE @ LAKEMOORE DR,0 ROSWELL RD NE & ROSWELL RD NE,33.864746,-84.380757,,,,,,0
52074,905763,ROSWELL RD NE @ CHASTAIN DR NE,0 ROSWELL RD NE & CHASTAIN DR NE,33.86753,-84.381151,,,,,,1
52076,905764,PEACHTREE RD NE @ LENOX RD NE,0 PEACHTREE & LENOX,33.850174,-84.362045,,,,,,1
52078,905765,PEACHTREE RD NE @ LENOX RD,0 PEACHTREE RD NE & LENOX RD,33.850395,-84.362343,0,,,,,1
52080,905648,PEACHTREE RD NE @ LENOX PKWY,0 PEACHTREE RD NE & LENOX PKWY,33.849046,-84.363944,0,,,,,1
52082,905882,PEACHTREE RD NE @ 3414,,33.84927,-84.36391,0,,,,,1
52084,905887,PEACHTREE RD NE @ STRATFORD RD NE,0 PEACHTREE & STRATFORD,33.848877,-84.366311,0,,,,,1
52086,905888,PEACHTREE RD NE @ STRATFORD RD NE,0 PEACHTREE & STRATFORD,33.84829,-84.366546,0,,,,,1
52088,905889,BUCKHEAD STATION - SOUTHBOUND,3340 PEACHTREE  RD  NE,33.847874,-84.367296,,,,,,1
52090,905890,BUCKHEAD STATION - NORTHBOUND,3340 PEACHTREE  RD  NE,33.847366,-84.367542,,,,,,1
52092,906006,PEACHTREE RD @ HIGHLAND DR,0 PEACHTREE & HIGHLAND,33.84536,-84.36898,0,,,,,1
52098,905891,PEACHTREE RD @ PIEDMONT RD,0 PEACHTREE RD & PIEDMONT RD,33.84339,-84.37162,0,,,,,1
52150,905182,PEACHTREE RD NE @ OAK VALLEY RD NE,0 PEACHTREE RD NE & OAK VALLEY RD NE,33.85133,-84.36101,0,,,,,1
52154,905188,PEACHTREE RD @ ROXBORO RD NE,0 PEACHTREE RD NE & ROXBORO RD NE,33.853934,-84.357278,0,,,,,1
52156,905189,PEACHTREE RD @ 3669,3669 PEACHTREE RD NE,33.854168,-84.355561,,,,,,1
52158,905190,PEACHTREE RD NE @ CANTRELL RD NE,0 PEACHTREE RD NE & CANTRELL RD NE,33.854786,-84.353721,,,,,,1
52160,905303,PEACHTREE RD NE @ KINGSBORO RD NE,0 PEACHTREE RD NE & KINGSBORO RD NE,33.85553,-84.351566,,,,,,1
52162,905304,PEACHTREE RD NE @ CLUB DR NE,0 PEACHTREE RD NE & CLUB DR NE,33.85672,-84.34947,0,,,,,1
52164,905305,PEACHTREE RD @ CLUB DR,0 PEACHTREE RD NE & E CLUB DR NE,33.85769,-84.34701,0,,,,,1
52166,905306,PEACHTREE RD @ BELLAIRE DR,0 PEACHTREE RD NE & BELLAIRE DR NE,33.857813,-84.347169,,,,,,1
52168,905236,PEACHTREE RD @ CLUB DR,0 PEACHTREE RD NE & CLUB DR NE,33.856978,-84.349441,0,,,,,0
52170,905237,PEACHTREE RD @ VERMONT RD,0 PEACHTREE RD NE & KINGSBORO RD NE,33.85557,-84.35195,0,,,,,1
52172,905238,PEACHTREE RD @ NARMORE DR,0 PEACHTREE RD NE & NARMORE DR NE,33.85478,-84.35422,0,,,,,1
52174,905426,PEACHTREE RD @ 3660,,33.854138,-84.356283,,,,,,1
52178,905421,PEACHTREE RD @ WIEUCA RD,0 PEACHTREE RD NE & WIEUCA RD,33.85295,-84.36042,0,,,,,1
52182,905422,PEACHTREE RD NE @ MAPLE DR NE,0 PEACHTREE RD NE & MAPLE DR NE,33.843217,-84.372473,0,,,,,1
52220,905428,LENOX RD NE @ FERNCLIFF RD NE,0 LENOX RD NE & FERNCLIFF RD NE,33.843509,-84.358028,0,,,,,0
52222,905429,PIEDMONT RD NE @ PEACHTREE RD NE,,33.844667,-84.371829,0,,,,,1
52234,905478,PEACHTREE RD @ PEACHTREE DUNWOODY RD,0 PEACHTREE & PEACHTREE DUNWOODY,33.854163,-84.357725,,,,,,1
52500,905666,LENOX STATION,LENOX RD NE & E PACES FERRY RD NE,33.845245,-84.358006,,,,,,1
53002,905662,BRIARWOOD RD @ 1433,,33.84958,-84.33204,,,,,,1
53010,905712,N DRUID HILLS RD @ CHILDERS RD,0 N DRUID HILLS RD NE & CHILDERS RD NE,33.836602,-84.342788,0,,,,,0
53014,905714,N DRUID HILLS RD NE @ CURTIS DR,0 N DRUID HILLS RD NE & CURTIS DR NE,33.843467,-84.340091,0,,,,,0
53016,905715,N DRUID HILLS RD NE @ CURTIS DR,0 N DRUID HILLS RD NE & CURTIS DR NE,33.843199,-84.340755,0,,,,,0
53020,905784,N DRUID HILLS RD NE @ LENOX PARK BLVD,0 N DRUID HILLS RD NE & LENOX PARK BLVD NE,33.845069,-84.339264,0,,,,,1
53022,905832,N DRUID HILLS RD NE @ BROOKSHIRE LN,0 N DRUID HILLS RD NE & BROOKSHIRE LN NE,33.846833,-84.339134,0,,,,,1
53024,905833,N DRUID HILLS RD @ DRUID KNOLL DR,0 DRUID HILLS & DRUID KNOLL,33.841534,-84.342148,0,,,,,1
53025,905903,N DRUID HILLS RD @ GAIL DR,0 N DRUID HILLS RD NE & GAIL DR NE,33.840531,-84.342496,0,,,,,1
53026,905904,N DRUID HILLS RD NE @ WRIGHT AVE,0 N DRUID HILLS RD NE & WRIGHT AVE NE,33.841874,-84.342082,0,,,,,1
53028,905905,N DRUID HILLS RD NE @ GOODWIN RD,0 N DRUID HILLS RD NE & GOODWIN RD NE,33.839833,-84.342876,0,,,,,1
53030,905957,N DRUID HILLS RD NE @ SYLVAN CIR NE (N),0 N DRUID HILLS RD NE & SYLVAN CIR NE,33.856695,-84.339952,0,,,,,1
53031,905958,N DRUID HILLS RD NE @ STANDARD DR,0 N DRUID HILLS RD NE & STANDARD DR NE,33.856758,-84.340072,,,,,,0
53034,905959,N DRUID HILLS RD NE @ THORNWELL DR,0 N DRUID HILLS RD NE & THORNWELL DR NE,33.854708,-84.339407,0,,,,,0
53036,905960,N DRUID HILLS RD NE @ SYLVAN CIR NE (S),0 N DRUID HILLS RD NE & SYLVAN CIR NE,33.854861,-84.339331,0,,,,,1
53042,905908,N DRUID HILLS RD NE @ COLONIAL DR,0 N DRUID HILLS RD NE & COLONIAL DR NE,33.850833,-84.338938,0,,,,,0
53044,905956,N DRUID HILLS RD NE @ BRIARWOOD RD,0 N DRUID HILLS RD NE & BRIARWOOD RD NE,33.853179,-84.339135,0,,,,,1
53045,905961,N DRUID HILLS RD NE @ BROOKSHIRE LN,0 DRUID HILLS & BROOKSHIRE,33.846909,-84.33931,0,,,,,0
53052,905962,BRIARWOOD RD @ BRIARWOOD HILLS,0 BRIARWOOD RD NE & BRIARWOOD HILLS DR NE,33.85128,-84.33446,0,,,,,1
53058,906074,PEACHTREE RD NE @ OSBORNE RD NE,0 PEACHTREE RD NE & OSBORNE RD NE,33.865216,-84.337101,,,,,,1
53076,905257,BUFORD HWY NE @ BRIARWOOD RD,0 BUFORD HWY NE & BRIARWOOD RD NE,33.844001,-84.327313,0,,,,,1
53078,905258,BUFORD HWY NE @ BRIARWOOD RD,0 BUFORD HWY NE & BRIARWOOD RD NE,33.844489,-84.327244,0,,,,,1
53079,905259,BRIARWOOD RD NE @ BUFORD HWY NE,0 BRIARWOOD RD NE & BUFORD HWY NE,33.844157,-84.326345,,,,,,1
53082,905252,BUFORD HWY NE @ KNOLL PL NE,3446 BUFORD HWY NE & KNOLL PL NE,33.845859,-84.325756,0,,,,,1
53084,905253,BUFORD HWY NE @ AFTON LN,0 BUFORD HWY NE & KNOLL PL NE,33.847316,-84.323639,0,,,,,1
53088,905255,BUFORD HWY NE @ AFTON LN NE,,33.84793,-84.323417,0,,,,,1
53090,905260,BUFORD HWY NE @ 3557,,33.849048,-84.321772,0,,,,,1
53092,905261,BUFORD HWY NE @ 3580,,33.849297,-84.321867,0,,,,,0
53094,905372,BUFORD HWY NE @ 3567,,33.8504,-84.320204,0,,,,,0
53096,905373,BUFORD HWY NE @ 3610,,33.850388,-84.320664,0,,,,,0
53098,905374,BUFORD HWY NE @ 3649,,33.851307,-84.31919,0,,,,,0
53100,906132,BUFORD HWY NE @ 3658,,33.851521,-84.319416,0,,,,,0
53102,906133,BUFORD HWY NE @ 3691,3683 BUFORD,33.852117,-84.318291,0,,,,,0
53104,906134,BUFORD HWY NE @ 3700,,33.852363,-84.318457,0,,,,,0
53108,906140,BUFORD HWY NE @ DREW VALLEY RD,0 BUFORD HWY NE & DREW VALLEY RD NE,33.854524,-84.316035,0,,,,,0
53110,906141,BUFORD HWY NE @ DREW VALLEY RD,0 BUFORD & DREW VALLEY,33.85407,-84.316133,0,,,,,0
53112,906142,BUFORD HWY NE @ 3799,,33.85541,-84.31462,0,,,,,0
53114,906143,BUFORD HWY NE @ 3814,,33.855573,-84.314874,0,,,,,0
53116,906136,BUFORD HWY NE @ CLAIRMONT TER,0 BUFORD HWY NE & CLAIRMONT TER NE,33.856545,-84.313786,0,,,,,0
53118,906137,BUFORD HWY NE @ CLAIRMONT TER,0 BUFORD & CLAIRMONT,33.85636,-84.31359,0,,,,,0
53120,906138,BUFORD HWY NE @ CLAIRMONT RD,0 BUFORD & CLAIRMONT,33.857492,-84.312302,0,,,,,0
53122,906139,BUFORD HWY NE @ CLAIRMONT RD NE,0 BUFORD HWY NE & CLAIRMONT RD NE,33.858533,-84.311544,0,,,,,0
53126,906192,BUFORD HWY NE @ DERING CIR,0 BUFORD HWY NE & DERING CIR NE,33.85928,-84.31029,0,,,,,0
53128,906169,BUFORD HWY NE @ 4075,,33.86205,-84.307215,0,,,,,0
53130,906171,BUFORD HWY NE @ DERING CIR,0 BUFORD HWY NE & DERING CIR NE,33.860486,-84.309386,0,,,,,0
53134,906195,CLAIRMONT RD NE @ BARONE AVE NE,0 CLAIRMONT RD NE & BARONE AVE NE,33.842818,-84.314469,0,,,,,1
53136,906196,CLAIRMONT RD NE @ CLAIRMONT WAY,0 CLAIRMONT RD NE & CLAIRMONT WAY NE,33.845695,-84.315402,0,,,,,1
53140,906202,CLAIRMONT RD NE @ WILMONT DR,0 CLAIRMONT RD NE & WILMONT DR NE,33.85027,-84.315518,0,,,,,1
53142,906203,CLAIRMONT RD NE @ CLAIRMONT NORTH NE,0 CLAIRMONT RD NE & CLAIRMONT NORTH NE,33.852493,-84.314717,0,,,,,1
53146,906197,CLAIRMONT RD NE @ CLAIRMONT TER,0 CLAIRMONT RD NE & CLAIRMONT TER NE,33.855829,-84.312506,0,,,,,1
53148,906198,CLAIRMONT RD NE @ BUFORD HWY,0 CLAIRMONT RD NE & BUFORD HWY NE,33.858531,-84.311933,0,,,,,1
53172,906231,PEACHTREE RD NE @ BROOKHAVEN DR NE,0 PEACHTREE RD NE & BROOKHAVEN DR NE,33.857527,-84.345308,,,,,,1
53174,906254,PEACHTREE RD NE @ COLONIAL DR NE,0 PEACHTREE RD NE & COLONIAL DR NE,33.85741,-84.34355,0,,,,,1
53175,906255,PEACHTREE RD @ N DRUID HILLS RD,0 PEACHTREE & DRUID HILLS,33.858462,-84.341295,0,,,,,1
53182,906257,PEACHTREE RD NE @ OSBORNE RD NE,0 PEACHTREE & OSBORNE,33.86506,-84.33705,,,,,,1
53186,906262,PEACHTREE RD NE @ TOWN BLVD,0 PEACHTREE & CROSS KEYS,33.86945,-84.334007,,,,,,0
53188,906263,PEACHTREE RD @ TOWN BLVD,PEACHTREE RD NE & TOWN BLVD,33.868447,-84.334892,0,,,,,1
53196,906264,PEACHTREE RD @ COLONIAL DR,PEACHTREE RD NE & COLONIAL DR NE,33.857619,-84.343975,0,,,,,1
53235,905210,LAVISTA RD @ MAIN ST,0 LAVISTA RD & MAIN ST,33.855921,-84.214697,0,,,,,1
53252,905327,CLAIRMONT RD @ CENTURY PL,0 CLAIRMONT RD NE & CENTURY PL NE,33.848104,-84.315439,,,,,,0
53254,905328,CLAIRMONT RD @ MCJENKIN DR,0 CLAIRMONT RD NE & MCJENKINS DR NE,33.850395,-84.315395,,,,,,0
53256,905329,CLAIRMONT RD @ CLAIRMONT NORTH  NE,0 CLAIRMONT RD NE & CLAIRMONT NORTH NE,33.852337,-84.314611,,,,,,0
53260,905212,CLAIRMONT RD @ CLAIRMONT TER,0 CLAIRMONT RD NE & CLAIRMONT TER NE,33.855935,-84.312303,,,,,,0
53262,905213,CLAIRMONT RD @ BUFORD HWY,0 CLAIRMONT RD NE & BUFORD HWY NE,33.857852,-84.311785,0,,,,,1
53267,905331,N DRUID HILLS RD NE @ N CLIFF VALLEY WAY,N DRUID HILLS RD NE & N CLIFF VALLEY WAY NE,33.844801,-84.339166,0,,,,,1
53306,905457,BRIARWOOD RD @ 1599 (ACROSS),,33.84538,-84.32756,0,,,,,1
53308,905573,BRIARWOOD RD @ KEYS CROSSING,0 BRIARWOOD & KEYS CROSSING,33.84701,-84.3283,,,,,,1
53310,905574,BRIARWOOD RD @ PINE CONE LN,0 BRIARWOOD & PINE CONE,33.84797,-84.32928,,,,,,1
53312,905575,BRIARWOOD RD @ BRIARWOOD WAY,0 BRIARWOOD RD NE & BRIARWOOD WAY NE,33.848972,-84.330568,,,,,,1
53326,905805,BRIARWOOD RD NE @ LIMEHURST DR,,33.851746,-84.335227,,,,,,1
53328,905806,BRIARWOOD RD NE @ YANCY LN NE,0 BRIARWOOD RD NE & YANCEY LN NE,33.84942,-84.332016,,,,,,1
53330,905690,BRIARWOOD RD NE @ BRIARWOOD WAY,0 BRIARWOOD RD NE & BRIARWOOD WAY NE,33.848892,-84.330546,,,,,,0
53332,905691,BRIARWOOD RD NE @ PINE CONE LN NE,0 BRIARWOOD RD NE & PINE CONE LN NE,33.847943,-84.329403,,,,,,0
53334,905692,BRIARWOOD RD NE @ KEYS CROSSING,BRIARWOOD RD NE & KEYS CROSSING DR NE,33.847111,-84.328511,,,,,,0
53336,905693,BRIARWOOD RD NE @ 3446,,33.845196,-84.327607,,,,,,0
53386,905696,BUFORD HWY NE @ KNOLL PL,BUFORD HWY NE & KNOLL PL NE,33.845554,-84.325681,0,,,,,1
53516,906055,N DRUID HILLS RD NE @ COLONIAL DR,0 N DRUID HILLS RD NE & COLONIAL DR NE,33.850788,-84.338841,0,,,,,1
53518,906056,BRIARWOOD RD NE @ N DRUID HILLS RD,0 BRIARWOOD RD NE & DRUID HILLS RD,33.853169,-84.338776,,,,,,0
53520,905940,CLAIRMONT RD NE @ CENTURY PL,0 CLAIRMONT RD NE & CENTURY PL NE,33.847153,-84.315577,0,,,,,1
53900,905697,BROOKHAVEN/OGLETHORPE STATION,4047 PEACHTREE RDNE,33.86025,-84.339147,,,,,,1
54024,905820,BUFORD HWY NE @ OAK SHADOW CT NE,4203 BUFORD & OAK SHADOW CT NE,33.864988,-84.303891,0,,,,,0
54026,905173,BUFORD HWY NE @ PLASTER RD,0 BUFORD & PLASTER,33.8659,-84.302957,0,,,,,1
54046,905292,SHALLOWFORD RD NE @ FLAIR KNOLL DR NE,0 SHALLOWFORD RD NE & FLAIR KNOLL DR NE,33.858539,-84.283821,0,,,,,1
54048,905293,SHALLOWFORD RD NE @ FLAIR KNOLL DR NE,0 SHALLOWFORD RD NE & FLAIR KNOLL DR NE,33.858228,-84.283727,,,,,,1
54082,906013,SHALLOWFORD RD NE @ MELINDA DR NE,0 SHALLOWFORD RD NE & MELINDA DR NE,33.855739,-84.281812,,,,,,1
54084,906014,SHALLOWFORD RD NE @ LAKE FLAIR CIR NE,0 SHALLOWFORD RD NE & LAKE FLAIR CIR NE,33.86116,-84.28621,0,,,,,1
54086,906060,SHALLOWFORD RD NE @ BRIARLAKE CT NE,0 SHALLOWFORD RD NE & BRIARLAKE CT NE,33.862856,-84.287295,,,,,,1
54088,906061,SHALLOWFORD RD NE @ FRONTIER TRL,0 SHALLOWFORD RD NE & FRONTIER TRL,33.865837,-84.289645,,,,,,1
54092,905946,SHALLOWFORD RD NE @ DRESDEN DR NE,0 SHALLOWFORD RD NE & DRESDEN DR NE,33.869919,-84.290264,,,,,,1
54094,905947,SHALLOWFORD RD NE @ 2868,,33.871458,-84.29047,,,,,,1
54096,905948,SHALLOWFORD RD NE @ DRESDEN DR NE,0 SHALLOWFORD RD NE & DRESDEN DR NE,33.869577,-84.290362,0,,,,,1
54098,905949,SHALLOWFORD RD NE @ 2728,,33.867388,-84.28989,0,,,,,0
54100,906062,SHALLOWFORD RD NE @ FRONTIER TRL,0 SHALLOWFORD RD NE & FRONTIER TRL,33.8659,-84.289863,,,,,,1
54102,905530,SHALLOWFORD RD NE @ BRIARLAKE CT NE,0 SHALLOWFORD RD NE & BRIARLAKE CT NE,33.862686,-84.287306,,,,,,1
54120,905535,BUFORD HWY NE @ BRAGG ST,0 BUFORD HWY NE & BRAGG ST,33.86894,-84.299912,0,,,,,0
54124,905463,BUFORD HWY NE @ PLASTER RD,0 BUFORD & PLASTER,33.865422,-84.303865,0,,,,,0
54128,905465,BUFORD HWY NE @ OAK SHADOW DR NE,,33.862618,-84.307001,0,,,,,0
54132,905466,I-85 ACCESS RD @ CENTURY BLVD NE,0 I-85 ACCESS & CENTURY,33.847752,-84.304855,,,,,,0
54134,905239,I-85 ACCESS RD @ CENTURY BLVD,0 I-85 ACCESS & CENTURY,33.846251,-84.30585,,,,,,1
54136,905307,I-85 ACCESS RD @ CENTURY BLVD NE,0 I-85 ACCESS & CENTURY,33.845127,-84.306496,,,,,,0
54138,905308,I-85 ACCESS RD NORTH (N.E. EXPY) @ 3001,,33.8664,-84.285998,,,,,,1
54140,905309,I-85 ACCESS RD NORTH (N.E. EXPY) @ COLONIAL WAY,,33.86861,-84.283438,,,,,,1
54142,905310,I-85 ACCESS RD NORTH (N.E. EXPY) @ 3185,3185 NORTHEAST,33.870319,-84.280792,,,,,,0
54148,905243,CLAIRMONT RD @ SKYLAND RD,0 CLAIRMONT RD NE & SKYLAND RD NE,33.859944,-84.310691,,,,,,1
54150,905357,CLAIRMONT RD @ RAVEN HILL DR,0 CLAIRMONT & RAVEN HILL,33.86155,-84.30968,,,,,,1
54152,905358,CLAIRMONT RD @ CANMONT DR,0 CLAIRMONT & CANMONT,33.86312,-84.30938,,,,,,1
54154,905359,CLAIRMONT RD @ DRESDEN DR,0 CLAIRMONT & DRESDEN,33.8652,-84.30931,,,,,,1
54156,905360,CLAIRMONT RD @ BRAGG ST,0 CLAIRMONT & BRAGG,33.867558,-84.309372,,,,,,1
54158,905244,CLAIRMONT RD @ YOUNG RD,0 CLAIRMONT & YOUNG,33.868889,-84.309349,,,,,,1
54160,905245,CLAIRMONT RD NE @ YOUNG RD,0 CLAIRMONT & YOUNG,33.869118,-84.30954,0,,,,,0
54162,905246,CLAIRMONT RD NE @ BRAGG ST,0 CLAIRMONT RD NE & BRAGG ST,33.86802,-84.309562,0,,,,,1
54164,900398,CLAIRMONT RD NE @ DRESDEN DR,0 CLAIRMONT RD NE & DRESDEN DR NE,33.865561,-84.309585,0,,,,,1
54166,900422,CLAIRMONT RD NE @ CANMONT DR,0 CLAIRMONT RD NE & CANMONT DR NE,33.863287,-84.309558,0,,,,,1
54168,900423,CLAIRMONT RD NE @ RAVEN HILL,0 CLAIRMONT RD NE & RAVEN HILL DR NE,33.861228,-84.30993,0,,,,,1
54170,900424,CLAIRMONT RD NE @ SKYLAND RD,0 CLAIRMONT RD NE & SKYLAND RD NE,33.860184,-84.310685,0,,,,,1
54172,900425,NORTHEAST EXPY @ 2501,,33.848785,-84.30304,,,,,,0
54174,900399,NORTHEAST EXPY @ 2515 (ENTRANCE),2515 I-85 N,33.853158,-84.298337,,,,,,0
54176,900400,NORTHEAST EXPY @ PEACHWOOD CIR S,I-85 N & PEACHWOOD CIR NE,33.856119,-84.294799,,,,,,0
54178,900401,NORTHEAST EXPY @ PEACHWOOD CIR N,0 I-85 N & PEACHWOOD CIR NE,33.857721,-84.293688,,,,,,0
54180,900402,NORTHEAST EXPY @ 2805,2805 I-85 N,33.862088,-84.290855,,,,,,0
54184,900427,I-85 ACCESS RD SOUTH (N.E. EXPY) @ PLASTER RD,0 NORTHEAST & PLASTER,33.862217,-84.292091,,,,,,0
54186,900428,I-85 ACCESS RD SOUTH (N.E. EXPY) @ 2772,2772 NORTHEAST EXPY NE,33.859896,-84.293436,,,,,,0
54188,900429,I-85 ACCESS RD SOUTH (N.E. EXPY) @ 2700,2700 NORTHEAST EXPY NE,33.857972,-84.294504,,,,,,0
54190,900403,I-85 ACCESS RD SOUTH (N.E. EXPY) @ 2628,2628 NORTHEAST,33.856091,-84.296135,,,,,,0
54192,900404,I-85 ACCESS RD SOUTH (N.E. EXPY) @ 2550,2550 NORTHEAST,33.854198,-84.298416,,,,,,0
54200,900431,I-85 ACCESS RD SOUTH (N.E. EXPY) @ 3070,,33.869693,-84.283318,,,,,,0
54204,900432,I-85 ACCESS RD NORTH (N.E. EXPY) @ 3265,3265 NORTHEAST EXPY NE,33.872286,-84.277862,,,,,,1
54208,900407,BUFORD HWY @ BRAGG ST,0 BUFORD HWY NE & BRAGG ST,33.86864,-84.29983,0,,,,,0
54228,900437,SHALLOWFORD RD NE @ LAKE FLAIR CIR NE (N),0 SHALLOWFORD RD NE & LAKE FLAIR CIR NE,33.861156,-84.286382,,,,,,1
54230,900410,BRIARCLIFF RD @ SHALLOWFORD RD,0 BRIARCLIFF RD NE & SHALLOWFORD RD NE,33.855444,-84.280648,0,,,,,0
54242,900439,SHALLOWFORD RD NE @ 2865,,33.871414,-84.29031,,,,,,1
54510,900416,CLAIRMONT RD @ W HARDEE AVE,0 CLAIRMONT & HARDEE,33.870957,-84.309301,,,,,,0
54511,900417,NORTH DEKALB HEALTH CENTER,3807 CLAIRMONT RD NE,33.871622,-84.308468,0,,,,,1
54512,900442,CLAIRMONT RD NE @ GEORGIAN DR E,0 CLAIRMONT RD NE & GEORGIAN DR E,33.871067,-84.30955,0,,,,,1
54514,900443,SHALLOWFORD RD NE @ 2739,,33.867548,-84.289714,0,,,,,1
54516,900444,NORTHEAST EXPY @ 2515 (EXIT),2515 I-85 N,33.854667,-84.296475,0,,,,,0
55006,900448,HENDERSON MILL RD NE @ MILL RIDGE TRL,0 HENDERSON MILL RD NE & MILL RIDGE TRL NE,33.853652,-84.259259,,,,,,0
55010,900449,HENDERSON MILL RD NE @ MIDVALE RD,0 HENDERSON MILL & MIDVALE,33.85999,-84.25239,0,,,,,1
55012,900252,HENDERSON MILL RD @ HENDERSON RD,0 HENDERSON MILL & HENDERSON,33.86759,-84.25054,0,,,,,0
55014,900253,HENDERSON MILL RD @ EVANS RD,0 HENDERSON MILL & EVANS,33.871627,-84.250548,,,,,,0
55016,900254,HENDERSON MILL RD @ HENDERSON RD,0 HENDERSON MILL & HENDERSON,33.86796,-84.25071,0,,,,,0
55018,900255,HENDERSON MILL RD @ BOLERO DR,0 HENDERSON MILL & BOLERO,33.865944,-84.2511,0,,,,,0
55020,900279,HENDERSON MILL RD @ HENDERSON CREEK,0 HENDERSON MILL RD & HENDERSON CREEK RD,33.863276,-84.251776,0,,,,,0
